{
"type": "FeatureCollection",
"name": "Hotels",
"crs": { "type": "name", "properties": { "name": "urn:ogc:def:crs:OGC:1.3:CRS84" } },
"features": [
{ "type": "Feature", "properties": { "NAME": "MOTEL 6 WASHINGTON DC", "ADDRESS": "6711 GEORGIA AVENUE NW", "ZIPCODE": "20012", "PHONE": "202-722-1600", "NUMROOMS": 72, "WEB_URL": "https://www.motel6.com/en/motels.dc.washington.4063.html?ncr=true", "XCOORD": 397678.38, "YCOORD": 144905.56, "GIS_ID": "temp_62", "MAR_ID": 285354, "SE_ANNO_CAD_DATA": null, "CREATED": null, "EDITED": null, "GLOBALID": "{1142D291-C226-42A4-84E6-B252646D5A51}", "OBJECTID": 1 }, "geometry": { "type": "Point", "coordinates": [ -77.026793445603914, 38.972073445217504 ] } },
{ "type": "Feature", "properties": { "NAME": "EMBASSY SUITES BY HILTON WASHINGTON DC CHEVY CHASE PAVILION", "ADDRESS": "4300 MILITARY ROAD NW", "ZIPCODE": "20015", "PHONE": "202-362-9300", "NUMROOMS": 198, "WEB_URL": "http://www.embassysuitesdcmetro.com/", "XCOORD": 392643.24, "YCOORD": 143654.27, "GIS_ID": "temp_37", "MAR_ID": 301908, "SE_ANNO_CAD_DATA": null, "CREATED": null, "EDITED": null, "GLOBALID": "{0BE95693-60CB-406A-A816-51AD06DC2E08}", "OBJECTID": 2 }, "geometry": { "type": "Point", "coordinates": [ -77.08488478086376, 38.960773771944837 ] } },
{ "type": "Feature", "properties": { "NAME": "INTERNATIONAL GUEST HOUSE", "ADDRESS": "1441 KENNEDY STREET NW", "ZIPCODE": "20011", "PHONE": "202-726-5808", "NUMROOMS": 12, "WEB_URL": "https://igh-dc.com/", "XCOORD": 396932.7, "YCOORD": 143169.27, "GIS_ID": "temp_53", "MAR_ID": 255891, "SE_ANNO_CAD_DATA": null, "CREATED": null, "EDITED": null, "GLOBALID": "{63CEFF8E-6AB7-4886-A1D2-3F8A476BB422}", "OBJECTID": 3 }, "geometry": { "type": "Point", "coordinates": [ -77.035390715544239, 38.956430222101304 ] } },
{ "type": "Feature", "properties": { "NAME": "DAYS INN BY WYNDHAM WASHINGTON DC/CONNECTICUT AVENUE", "ADDRESS": "4400 CONNECTICUT AVENUE NW", "ZIPCODE": "20008", "PHONE": "202-244-5600", "NUMROOMS": 155, "WEB_URL": "http://www.dcdaysinn.com/", "XCOORD": 394312.78, "YCOORD": 142119.11, "GIS_ID": "temp_29", "MAR_ID": 222132, "SE_ANNO_CAD_DATA": null, "CREATED": null, "EDITED": null, "GLOBALID": "{4CBB73B8-C6F9-4FF9-BF56-11196E23925B}", "OBJECTID": 4 }, "geometry": { "type": "Point", "coordinates": [ -77.065608860814834, 38.946957038904578 ] } },
{ "type": "Feature", "properties": { "NAME": "ASANTE SANA INN", "ADDRESS": "1207 KENYON STREET NW", "ZIPCODE": "20010", "PHONE": "202-570-1281", "NUMROOMS": 6, "WEB_URL": null, "XCOORD": 397537.26, "YCOORD": 140226.6, "GIS_ID": "temp_6", "MAR_ID": 231121, "SE_ANNO_CAD_DATA": null, "CREATED": null, "EDITED": null, "GLOBALID": "{434825F8-89DB-42FA-A891-E5899A320F90}", "OBJECTID": 5 }, "geometry": { "type": "Point", "coordinates": [ -77.028405147757255, 38.929923707957961 ] } },
{ "type": "Feature", "properties": { "NAME": "THE KALORAMA GUEST HOUSE", "ADDRESS": "2700 CATHEDRAL AVENUE NW", "ZIPCODE": "20008", "PHONE": "202-588-8188", "NUMROOMS": 11, "WEB_URL": "http://kaloramaguesthouse.com/", "XCOORD": 395185.03, "YCOORD": 140032.2, "GIS_ID": "temp_91", "MAR_ID": 284453, "SE_ANNO_CAD_DATA": null, "CREATED": null, "EDITED": null, "GLOBALID": "{98A100F1-477F-4685-AA99-8A4777D121C4}", "OBJECTID": 6 }, "geometry": { "type": "Point", "coordinates": [ -77.055532125676947, 38.928162750099737 ] } },
{ "type": "Feature", "properties": { "NAME": "LUXBNB", "ADDRESS": "5185 MACARTHUR BOULEVARD NW", "ZIPCODE": "20016", "PHONE": "202-341-8799", "NUMROOMS": null, "WEB_URL": "https://www.luxbnb.com/", "XCOORD": 391092.19, "YCOORD": 139878.21, "GIS_ID": "temp_151", "MAR_ID": 275285, "SE_ANNO_CAD_DATA": null, "CREATED": null, "EDITED": null, "GLOBALID": "{8E13FABB-3C6F-4682-8D2C-296165ADD81A}", "OBJECTID": 7 }, "geometry": { "type": "Point", "coordinates": [ -77.102731792779679, 38.926743599515682 ] } },
{ "type": "Feature", "properties": { "NAME": "WOODLEY PARK GUEST HOUSE", "ADDRESS": "2647 WOODLEY ROAD NW", "ZIPCODE": "20008", "PHONE": "202-667-0218", "NUMROOMS": 15, "WEB_URL": "http://www.dcinns.com/woodley.html", "XCOORD": 395340.51, "YCOORD": 139778.29, "GIS_ID": "temp_132", "MAR_ID": 219986, "SE_ANNO_CAD_DATA": null, "CREATED": null, "EDITED": null, "GLOBALID": "{197865A7-6851-4CDC-8398-BE9CC438599A}", "OBJECTID": 8 }, "geometry": { "type": "Point", "coordinates": [ -77.053737290476505, 38.925876287347094 ] } },
{ "type": "Feature", "properties": { "NAME": "WASHINGTON MARRIOTT WARDMAN PARK", "ADDRESS": "2660 WOODLEY ROAD NW", "ZIPCODE": "20008", "PHONE": "202-328-2000", "NUMROOMS": 1300, "WEB_URL": "http://www.marriott.com/hotels/travel/wasdt-washington-marriott-wardman-park/", "XCOORD": 395256.86, "YCOORD": 139650.43, "GIS_ID": "temp_127", "MAR_ID": 284450, "SE_ANNO_CAD_DATA": null, "CREATED": null, "EDITED": null, "GLOBALID": "{207690BE-6EE9-4E63-8C74-BE305C863AB8}", "OBJECTID": 9 }, "geometry": { "type": "Point", "coordinates": [ -77.054701090175968, 38.924724036362626 ] } },
{ "type": "Feature", "properties": { "NAME": "ADAM'S INN", "ADDRESS": "1746 LANIER PLACE NW", "ZIPCODE": "20009", "PHONE": "202-745-3600", "NUMROOMS": 26, "WEB_URL": "http://adamsinn.com/", "XCOORD": 396392.87, "YCOORD": 139629.97, "GIS_ID": "temp_2", "MAR_ID": 307146, "SE_ANNO_CAD_DATA": null, "CREATED": null, "EDITED": null, "GLOBALID": "{680D04F3-C690-4FB1-B2C1-D7FE9A395B05}", "OBJECTID": 10 }, "geometry": { "type": "Point", "coordinates": [ -77.041600298364557, 38.924545124143371 ] } },
{ "type": "Feature", "properties": { "NAME": "KIMPTON GLOVER PARK HOTEL", "ADDRESS": "2505 WISCONSIN AVENUE NW", "ZIPCODE": "20007", "PHONE": "202-337-9700", "NUMROOMS": 150, "WEB_URL": "https://www.gloverparkhotel.com", "XCOORD": 393691.04, "YCOORD": 139495.11, "GIS_ID": "temp_78", "MAR_ID": 301508, "SE_ANNO_CAD_DATA": null, "CREATED": null, "EDITED": null, "GLOBALID": "{02808839-88B9-4D2D-B373-42F47B3E1477}", "OBJECTID": 11 }, "geometry": { "type": "Point", "coordinates": [ -77.072756994051517, 38.923315016931362 ] } },
{ "type": "Feature", "properties": { "NAME": "THE LINE DC", "ADDRESS": "1770 EUCLID STREET NW", "ZIPCODE": "20009", "PHONE": "202-588-0525", "NUMROOMS": null, "WEB_URL": "https://www.thelinehotel.com/dc/", "XCOORD": 396383.72, "YCOORD": 139433.19, "GIS_ID": "temp_143", "MAR_ID": 235625, "SE_ANNO_CAD_DATA": null, "CREATED": null, "EDITED": null, "GLOBALID": "{EA7056C1-F5A7-4172-A1E0-95C702252579}", "OBJECTID": 12 }, "geometry": { "type": "Point", "coordinates": [ -77.041704780875548, 38.92277242924154 ] } },
{ "type": "Feature", "properties": { "NAME": "OMNI SHOREHAM HOTEL", "ADDRESS": "2500 CALVERT STREET NW", "ZIPCODE": "20008", "PHONE": "202-234-0700", "NUMROOMS": 832, "WEB_URL": "https://www.omnihotels.com/hotels/washington-dc-shoreham", "XCOORD": 395346.42, "YCOORD": 139418.29, "GIS_ID": "temp_64", "MAR_ID": 277165, "SE_ANNO_CAD_DATA": null, "CREATED": null, "EDITED": null, "GLOBALID": "{98E9A64D-20C2-46AE-A694-B4DED8E4C499}", "OBJECTID": 13 }, "geometry": { "type": "Point", "coordinates": [ -77.053666693361535, 38.922633323902197 ] } },
{ "type": "Feature", "properties": { "NAME": "HIGHROAD HOSTE", "ADDRESS": "1804 BELMONT ROAD NW", "ZIPCODE": "20009", "PHONE": "202-735-3622", "NUMROOMS": null, "WEB_URL": "http://highroadhostels.com/", "XCOORD": 396332.72, "YCOORD": 139171.42, "GIS_ID": "temp_160", "MAR_ID": 235426, "SE_ANNO_CAD_DATA": null, "CREATED": null, "EDITED": null, "GLOBALID": "{7945147B-CAC0-447E-BF29-B7B6193D5F27}", "OBJECTID": 14 }, "geometry": { "type": "Point", "coordinates": [ -77.04229150796553, 38.920414108931865 ] } },
{ "type": "Feature", "properties": { "NAME": "WINDSOR PARK HOTEL", "ADDRESS": "2116 KALORAMA ROAD NW", "ZIPCODE": "20008", "PHONE": "202-483-7700", "NUMROOMS": 43, "WEB_URL": "http://www.windsorparkhotel.com/", "XCOORD": 395789.75, "YCOORD": 138921.37, "GIS_ID": "temp_131", "MAR_ID": 234981, "SE_ANNO_CAD_DATA": null, "CREATED": null, "EDITED": null, "GLOBALID": "{CBC65A5E-74AD-4387-B643-A0FB1B3A9F69}", "OBJECTID": 15 }, "geometry": { "type": "Point", "coordinates": [ -77.048551229415764, 38.918159142832458 ] } },
{ "type": "Feature", "properties": { "NAME": "DAYS INN BY WYNDHAM WASHINGTON DC/GATEWAY", "ADDRESS": "2700 NEW YORK AVENUE NE", "ZIPCODE": "20002", "PHONE": "202-832-5800", "NUMROOMS": 195, "WEB_URL": "https://www.wyndhamhotels.com/days-inn/washington-district-of-columbia/days-inn-washington-dc-gateway/overview", "XCOORD": 402549.67, "YCOORD": 138901.29, "GIS_ID": "temp_30", "MAR_ID": 287175, "SE_ANNO_CAD_DATA": null, "CREATED": null, "EDITED": null, "GLOBALID": "{4ACC04D6-A4E0-4D0B-8480-DC502E66CBAD}", "OBJECTID": 16 }, "geometry": { "type": "Point", "coordinates": [ -76.970601778384136, 38.91798464509305 ] } },
{ "type": "Feature", "properties": { "NAME": "AMERICAN GUEST HOUSE", "ADDRESS": "2005 COLUMBIA ROAD NW", "ZIPCODE": "20009", "PHONE": "202-588-1180", "NUMROOMS": 12, "WEB_URL": "http://www.americanguesthouse.com/", "XCOORD": 396015.73, "YCOORD": 138872.49, "GIS_ID": "temp_5", "MAR_ID": 235122, "SE_ANNO_CAD_DATA": null, "CREATED": null, "EDITED": null, "GLOBALID": "{7BF4C1B3-BB38-4FBE-A975-B71FD9247A7B}", "OBJECTID": 17 }, "geometry": { "type": "Point", "coordinates": [ -77.045945141168104, 38.917719869341148 ] } },
{ "type": "Feature", "properties": { "NAME": "QUALITY INN  & SUITES NEW YORK AVE", "ADDRESS": "1600 NEW YORK AVENUE NE", "ZIPCODE": "20002", "PHONE": "202-832-3200", "NUMROOMS": 134, "WEB_URL": "https://www.choicehotels.com/district-of-columbia/washington/quality-inn-hotels/dc012", "XCOORD": 401736.92, "YCOORD": 138839.79, "GIS_ID": "temp_21", "MAR_ID": 60554, "SE_ANNO_CAD_DATA": null, "CREATED": null, "EDITED": null, "GLOBALID": "{AAFD8E51-6E10-4AD4-8AF8-FFBBA411E3DC}", "OBJECTID": 18 }, "geometry": { "type": "Point", "coordinates": [ -76.979973837169297, 38.91743261453918 ] } },
{ "type": "Feature", "properties": { "NAME": "THE NORMANDY HOTEL", "ADDRESS": "2118 WYOMING AVENUE NW", "ZIPCODE": "20008", "PHONE": "202-483-1350", "NUMROOMS": 75, "WEB_URL": "http://www.thenormandydc.com/", "XCOORD": 395877.57, "YCOORD": 138825.7, "GIS_ID": "temp_95", "MAR_ID": 235029, "SE_ANNO_CAD_DATA": null, "CREATED": null, "EDITED": null, "GLOBALID": "{224BE920-757B-4743-9662-F5E8D98770AF}", "OBJECTID": 19 }, "geometry": { "type": "Point", "coordinates": [ -77.047537991164845, 38.917297732275749 ] } },
{ "type": "Feature", "properties": { "NAME": "FAIRFIELD INN & SUITES WASHINGTON, DC/NEW YORK AVENUE", "ADDRESS": "2305 NEW YORK AVENUE NE", "ZIPCODE": "20002", "PHONE": "202-266-3000", "NUMROOMS": 126, "WEB_URL": "http://www.marriott.com/hotels/travel/wasna-fairfield-inn-and-suites-washington-dc-new-york-avenue/", "XCOORD": 402472.6, "YCOORD": 138774.41, "GIS_ID": "temp_41", "MAR_ID": 307042, "SE_ANNO_CAD_DATA": null, "CREATED": null, "EDITED": null, "GLOBALID": "{C234A095-4423-40AB-A272-B0539582A1A8}", "OBJECTID": 20 }, "geometry": { "type": "Point", "coordinates": [ -76.9714909372763, 38.916841888197993 ] } },
{ "type": "Feature", "properties": { "NAME": "IVY CITY HOTEL", "ADDRESS": "1615 NEW YORK AVENUE NE", "ZIPCODE": "20002", "PHONE": "202-529-3900", "NUMROOMS": 58, "WEB_URL": "https://www.ivycityhotel.com/", "XCOORD": 401693.61, "YCOORD": 138754.31, "GIS_ID": "temp_11", "MAR_ID": 286348, "SE_ANNO_CAD_DATA": null, "CREATED": null, "EDITED": null, "GLOBALID": "{1AAB7442-BA43-4D1B-A639-51ACBFB33EB3}", "OBJECTID": 21 }, "geometry": { "type": "Point", "coordinates": [ -76.980473456147138, 38.916662666816386 ] } },
{ "type": "Feature", "properties": { "NAME": "WASHINGTON HILTON", "ADDRESS": "1919 CONNECTICUT AVENUE NW", "ZIPCODE": "20009", "PHONE": "202-483-3000", "NUMROOMS": 1070, "WEB_URL": "http://www3.hilton.com/en/hotels/district-of-columbia/washington-hilton-DCAWHHH/index.html", "XCOORD": 396076.89, "YCOORD": 138733.91, "GIS_ID": "temp_106", "MAR_ID": 242829, "SE_ANNO_CAD_DATA": null, "CREATED": null, "EDITED": null, "GLOBALID": "{92FD24C7-776D-4115-B83F-7FF1205B9930}", "OBJECTID": 22 }, "geometry": { "type": "Point", "coordinates": [ -77.045239109721606, 38.916471769978251 ] } },
{ "type": "Feature", "properties": { "NAME": "THE CHURCHILL HOTEL NEAR EMBASSY ROW", "ADDRESS": "1914 CONNECTICUT AVENUE NW", "ZIPCODE": "20009", "PHONE": "202-797-2000", "NUMROOMS": 173, "WEB_URL": "http://www.thechurchillhotel.com/", "XCOORD": 395927.4, "YCOORD": 138724.01, "GIS_ID": "temp_19", "MAR_ID": 235060, "SE_ANNO_CAD_DATA": null, "CREATED": null, "EDITED": null, "GLOBALID": "{A23B6339-EF86-4D69-9A92-A4EB7268226F}", "OBJECTID": 23 }, "geometry": { "type": "Point", "coordinates": [ -77.046962798688654, 38.916381907393351 ] } },
{ "type": "Feature", "properties": { "NAME": "THE BIRDHOUSE BED AND BREAKFAST", "ADDRESS": "327 T STREET NW", "ZIPCODE": "20001", "PHONE": "202-770-7059", "NUMROOMS": 7, "WEB_URL": "https://www.birdhousebnb.com/index.htm", "XCOORD": 398522.46, "YCOORD": 138690.31, "GIS_ID": "temp_145", "MAR_ID": 229780, "SE_ANNO_CAD_DATA": null, "CREATED": null, "EDITED": null, "GLOBALID": "{03604A89-2C1D-49FD-9700-F13159395D65}", "OBJECTID": 24 }, "geometry": { "type": "Point", "coordinates": [ -77.01703949613848, 38.916086521946305 ] } },
{ "type": "Feature", "properties": { "NAME": "COURTYARD WASHINGTON, DC/DUPONT CIRCLE", "ADDRESS": "1900 CONNECTICUT AVENUE NW", "ZIPCODE": "20009", "PHONE": "202-332-9300", "NUMROOMS": 147, "WEB_URL": "http://www.marriott.com/hotels/travel/wasnw-courtyard-washington-dc-dupont-circle/", "XCOORD": 395935.01, "YCOORD": 138685.68, "GIS_ID": "temp_24", "MAR_ID": 235054, "SE_ANNO_CAD_DATA": null, "CREATED": null, "EDITED": null, "GLOBALID": "{2D81B3D8-1FCE-4D25-A3AF-DB907B9F9B1C}", "OBJECTID": 25 }, "geometry": { "type": "Point", "coordinates": [ -77.046874822026908, 38.916036653240575 ] } },
{ "type": "Feature", "properties": { "NAME": "LEDROIT PARK BED AND BREAKFEAST", "ADDRESS": "210 T STREET NW", "ZIPCODE": "20001", "PHONE": "202-277-7847", "NUMROOMS": 2, "WEB_URL": "http://www.ledroitparkrenaissancebedandbreakfast.com/", "XCOORD": 398707.99, "YCOORD": 138650.04, "GIS_ID": "temp_56", "MAR_ID": 229977, "SE_ANNO_CAD_DATA": null, "CREATED": null, "EDITED": null, "GLOBALID": "{8CD3F771-CD06-411D-A85F-583DC1405BDC}", "OBJECTID": 26 }, "geometry": { "type": "Point", "coordinates": [ -77.014900111884629, 38.91572404874438 ] } },
{ "type": "Feature", "properties": { "NAME": "GEORGETOWN HILL INN", "ADDRESS": "1832 WISCONSIN AVENUE NW", "ZIPCODE": "20007", "PHONE": "202-298-6021", "NUMROOMS": 8, "WEB_URL": "http://www.georgetownhillinn.com/", "XCOORD": 394121.48, "YCOORD": 138623.6, "GIS_ID": "temp_45", "MAR_ID": 274540, "SE_ANNO_CAD_DATA": null, "CREATED": null, "EDITED": null, "GLOBALID": "{BEBAD762-E2EF-47FF-916B-F2D991D07FC8}", "OBJECTID": 27 }, "geometry": { "type": "Point", "coordinates": [ -77.06778571375483, 38.915467155812138 ] } },
{ "type": "Feature", "properties": { "NAME": "WINDSOR INN", "ADDRESS": "1842 16TH STREET NW", "ZIPCODE": "20009", "PHONE": "202-667-0300", "NUMROOMS": 58, "WEB_URL": "http://www.windsor-inn-hotel-dc.com/", "XCOORD": 396795.86, "YCOORD": 138602.89, "GIS_ID": "temp_130", "MAR_ID": 241907, "SE_ANNO_CAD_DATA": null, "CREATED": null, "EDITED": null, "GLOBALID": "{E372DA81-9BFA-4CEB-9AAE-11B124EB5491}", "OBJECTID": 28 }, "geometry": { "type": "Point", "coordinates": [ -77.036948158091548, 38.915294413785041 ] } },
{ "type": "Feature", "properties": { "NAME": "SWANN HOUSE LLC", "ADDRESS": "1808 NEW HAMPSHIRE AVENUE NW", "ZIPCODE": "20009", "PHONE": "202-265-4414", "NUMROOMS": 12, "WEB_URL": "http://swannhouse.com/", "XCOORD": 396593.36, "YCOORD": 138522.13, "GIS_ID": "temp_81", "MAR_ID": 241551, "SE_ANNO_CAD_DATA": null, "CREATED": null, "EDITED": null, "GLOBALID": "{3E89ED31-A23B-4A53-86D6-3ED441BB234F}", "OBJECTID": 29 }, "geometry": { "type": "Point", "coordinates": [ -77.039282717285474, 38.914566138951834 ] } },
{ "type": "Feature", "properties": { "NAME": "KIMPTON CARLYLE HOTEL", "ADDRESS": "1731 NEW HAMPSHIRE AVENUE NW", "ZIPCODE": "20009", "PHONE": "202-234-3200", "NUMROOMS": 170, "WEB_URL": "https://www.carlylehoteldc.com/boutique-hotels-washington-dc/", "XCOORD": 396576.77, "YCOORD": 138386.85, "GIS_ID": "temp_18", "MAR_ID": 241652, "SE_ANNO_CAD_DATA": null, "CREATED": null, "EDITED": null, "GLOBALID": "{7878B550-BC90-4069-B5F9-EA1D0686FD10}", "OBJECTID": 30 }, "geometry": { "type": "Point", "coordinates": [ -77.03947333456739, 38.913347426698216 ] } },
{ "type": "Feature", "properties": { "NAME": "IVY MANSION B&B AT DUPONT CIRCLE", "ADDRESS": "1705 21ST STREET NW", "ZIPCODE": "20009", "PHONE": "202-302-0242", "NUMROOMS": null, "WEB_URL": "http://theivymansion.com/", "XCOORD": 395975.25, "YCOORD": 138345.35, "GIS_ID": "temp_167", "MAR_ID": 277124, "SE_ANNO_CAD_DATA": null, "CREATED": null, "EDITED": null, "GLOBALID": "{D60DA30F-1CF6-4FA3-B5AD-36115B7DA69B}", "OBJECTID": 31 }, "geometry": { "type": "Point", "coordinates": [ -77.046408828109705, 38.912971031662273 ] } },
{ "type": "Feature", "properties": { "NAME": "EMBASSY CIRCLE GUEST HOUSE", "ADDRESS": "2224 R STREET NW", "ZIPCODE": "20008", "PHONE": "202-232-7744", "NUMROOMS": 11, "WEB_URL": "http://www.dcinns.com/embassy.html", "XCOORD": 395680.15, "YCOORD": 138285.65, "GIS_ID": "temp_35", "MAR_ID": 234892, "SE_ANNO_CAD_DATA": null, "CREATED": null, "EDITED": null, "GLOBALID": "{4EBA4752-84CB-4C9F-8C54-9A61A92A082E}", "OBJECTID": 32 }, "geometry": { "type": "Point", "coordinates": [ -77.049811041089399, 38.912431832821724 ] } },
{ "type": "Feature", "properties": { "NAME": "HOWARD JOHNSON BY WYNDHAM WASHINGTON DC", "ADDRESS": "600 NEW YORK AVENUE NE", "ZIPCODE": "20002", "PHONE": "202-546-9200", "NUMROOMS": 53, "WEB_URL": "https://www.wyndhamhotels.com/hojo/washington-district-of-columbia/howard-johnson-express-inn-washington-dc/overview", "XCOORD": 400381.05, "YCOORD": 138273.43, "GIS_ID": "temp_122", "MAR_ID": 288753, "SE_ANNO_CAD_DATA": null, "CREATED": null, "EDITED": null, "GLOBALID": "{2AACC7BF-1964-42DA-B723-AEED8BA9841A}", "OBJECTID": 33 }, "geometry": { "type": "Point", "coordinates": [ -76.995608705959441, 38.912332286618145 ] } },
{ "type": "Feature", "properties": { "NAME": "THE EMBASSY INN HOTEL", "ADDRESS": "1627 16TH STREET NW", "ZIPCODE": "20009", "PHONE": "202-234-7800", "NUMROOMS": 39, "WEB_URL": "https://embassy-inn-hotel-dc.com/", "XCOORD": 396873.42, "YCOORD": 138263.7, "GIS_ID": "temp_87", "MAR_ID": 242291, "SE_ANNO_CAD_DATA": null, "CREATED": null, "EDITED": null, "GLOBALID": "{37D9D8AE-972B-47FD-AF07-977BDB134BB4}", "OBJECTID": 34 }, "geometry": { "type": "Point", "coordinates": [ -77.036052294916132, 38.912239155298558 ] } },
{ "type": "Feature", "properties": { "NAME": "GEORGETOWN UNIVERSITY HOTEL & CONFERENCE CENTER", "ADDRESS": "3800 RESERVOIR ROAD NW", "ZIPCODE": "20007", "PHONE": "202-687-3200", "NUMROOMS": 146, "WEB_URL": "http://www.acc-guhotelandconferencecenter.com/", "XCOORD": 393470.87, "YCOORD": 138262.65, "GIS_ID": "temp_48", "MAR_ID": 291547, "SE_ANNO_CAD_DATA": null, "CREATED": null, "EDITED": null, "GLOBALID": "{BECF906B-400C-4EBD-A544-B7C42850E2AB}", "OBJECTID": 35 }, "geometry": { "type": "Point", "coordinates": [ -77.075284264456457, 38.91221100448589 ] } },
{ "type": "Feature", "properties": { "NAME": "HOMEWOOD SUITES WASHINGTON DC NOMA UNION STATION", "ADDRESS": "501 NEW YORK AVENUE NE", "ZIPCODE": "20002", "PHONE": "202-393-8001", "NUMROOMS": null, "WEB_URL": "http://homewoodsuites3.hilton.com/en/hotels/district-of-columbia/homewood-suites-by-hilton-washington-dc-noma-union-station-DCANEHW/index.html", "XCOORD": 400267.79, "YCOORD": 138159.12, "GIS_ID": "temp_159", "MAR_ID": 288413, "SE_ANNO_CAD_DATA": null, "CREATED": null, "EDITED": null, "GLOBALID": "{B13E7DA7-DE7F-4CF5-A01A-0D8C6BC30F48}", "OBJECTID": 36 }, "geometry": { "type": "Point", "coordinates": [ -76.996710160786378, 38.911353935894965 ] } },
{ "type": "Feature", "properties": { "NAME": "HAMPTON INN WASHINGTON DC NOMA UNION STATION", "ADDRESS": "501 NEW YORK AVENUE NE", "ZIPCODE": "20002", "PHONE": "202-393-1001", "NUMROOMS": null, "WEB_URL": "http://hamptoninn3.hilton.com/en/hotels/district-of-columbia/hampton-inn-washington-dc-noma-union-station-DCANYHX/index.html", "XCOORD": 400267.79, "YCOORD": 138159.12, "GIS_ID": "temp_133", "MAR_ID": 288413, "SE_ANNO_CAD_DATA": null, "CREATED": null, "EDITED": null, "GLOBALID": "{7E01CA8B-37C8-4A00-A20D-6C79BFD2DBE9}", "OBJECTID": 37 }, "geometry": { "type": "Point", "coordinates": [ -76.996914659624522, 38.911302584913422 ] } },
{ "type": "Feature", "properties": { "NAME": "THE EMBASSY ROW HOTEL", "ADDRESS": "2015 MASSACHUSETTS AVENUE NW", "ZIPCODE": "20036", "PHONE": "202-265-1600", "NUMROOMS": 231, "WEB_URL": "http://www.embassyrowhotel.com/", "XCOORD": 396037.26, "YCOORD": 138096.8, "GIS_ID": "temp_36", "MAR_ID": 225934, "SE_ANNO_CAD_DATA": null, "CREATED": null, "EDITED": null, "GLOBALID": "{29C3D41F-943C-46D1-BB6C-6C8A73D383E4}", "OBJECTID": 38 }, "geometry": { "type": "Point", "coordinates": [ -77.045692400303679, 38.910732290600066 ] } },
{ "type": "Feature", "properties": { "NAME": "THE FAIRFAX AT EMBASSY ROW", "ADDRESS": "2100 MASSACHUSETTS AVENUE NW", "ZIPCODE": "20008", "PHONE": "202-293-2100", "NUMROOMS": 259, "WEB_URL": "https://fairfaxwashingtondc.com", "XCOORD": 395921.69, "YCOORD": 138070.77, "GIS_ID": "temp_88", "MAR_ID": 225940, "SE_ANNO_CAD_DATA": null, "CREATED": null, "EDITED": null, "GLOBALID": "{71DAF82A-2602-4DAB-895C-F9377D280795}", "OBJECTID": 39 }, "geometry": { "type": "Point", "coordinates": [ -77.047024759511899, 38.910497274744579 ] } },
{ "type": "Feature", "properties": { "NAME": "THE DUPONT CIRCLE HOTEL", "ADDRESS": "1500 NEW HAMPSHIRE AVENUE NW", "ZIPCODE": "20036", "PHONE": "202-483-6000", "NUMROOMS": 327, "WEB_URL": "http://www.doylecollection.com/locations/washington_dc_hotels/the_dupont_circle_hotel.aspx", "XCOORD": 396262.53, "YCOORD": 138068.42, "GIS_ID": "temp_85", "MAR_ID": 225560, "SE_ANNO_CAD_DATA": null, "CREATED": null, "EDITED": null, "GLOBALID": "{F115C58A-64D9-4532-A2A7-E0D29284DFEC}", "OBJECTID": 40 }, "geometry": { "type": "Point", "coordinates": [ -77.043094898817031, 38.91047762075528 ] } },
{ "type": "Feature", "properties": { "NAME": "THE BARON HOTEL", "ADDRESS": "1523 22ND STREET NW", "ZIPCODE": "20037", "PHONE": "202-293-1887", "NUMROOMS": 53, "WEB_URL": "http://www.thebaronhotel.com/", "XCOORD": 395795.46, "YCOORD": 138049.28, "GIS_ID": "temp_83", "MAR_ID": 225698, "SE_ANNO_CAD_DATA": null, "CREATED": null, "EDITED": null, "GLOBALID": "{BE229AFB-AAFA-48BE-9CBC-78BF655CF1B1}", "OBJECTID": 41 }, "geometry": { "type": "Point", "coordinates": [ -77.048480045964311, 38.910303090625007 ] } },
{ "type": "Feature", "properties": { "NAME": "MOTEL 6 WASHINGTON DC - CONVENTION CENTER", "ADDRESS": "1345 4TH STREET NE", "ZIPCODE": "20002", "PHONE": "202-544-2000", "NUMROOMS": 33, "WEB_URL": "https://www.motel6.com/en/motels.dc.washington.4481.html?ncr=true", "XCOORD": 400182.31, "YCOORD": 138034.17, "GIS_ID": "temp_63", "MAR_ID": 66534, "SE_ANNO_CAD_DATA": null, "CREATED": null, "EDITED": null, "GLOBALID": "{B15127F3-1ADB-4105-BE10-4BD7AA7D9824}", "OBJECTID": 42 }, "geometry": { "type": "Point", "coordinates": [ -76.997900279012441, 38.91017701433114 ] } },
{ "type": "Feature", "properties": { "NAME": "KIMPTON HOTEL PALOMAR WASHINGTON DC", "ADDRESS": "2121 P STREET NW", "ZIPCODE": "20037", "PHONE": "202-448-1800", "NUMROOMS": 335, "WEB_URL": "http://www.hotelpalomar-dc.com/", "XCOORD": 395887.77, "YCOORD": 137995.72, "GIS_ID": "temp_119", "MAR_ID": 225942, "SE_ANNO_CAD_DATA": null, "CREATED": null, "EDITED": null, "GLOBALID": "{C6FA902F-4587-4ADE-855C-4E0BF3EC67A7}", "OBJECTID": 43 }, "geometry": { "type": "Point", "coordinates": [ -77.047415403923424, 38.909821040572787 ] } },
{ "type": "Feature", "properties": { "NAME": "RESIDENCE INN WASHINGTON, DC/DUPONT CIRCLE", "ADDRESS": "2120 P STREET NW", "ZIPCODE": "20037", "PHONE": "202-466-6800", "NUMROOMS": 107, "WEB_URL": "http://www.marriott.com/hotels/travel/wasri-residence-inn-washington-dc-dupont-circle/", "XCOORD": 395895.68, "YCOORD": 137950.94, "GIS_ID": "temp_71", "MAR_ID": 279547, "SE_ANNO_CAD_DATA": null, "CREATED": null, "EDITED": null, "GLOBALID": "{0BF18491-8F93-4406-AE52-F8A5C16D8177}", "OBJECTID": 44 }, "geometry": { "type": "Point", "coordinates": [ -77.047323935692489, 38.909417683930315 ] } },
{ "type": "Feature", "properties": { "NAME": "THE AVERY GEORGETOWN", "ADDRESS": "2616 P STREET NW", "ZIPCODE": "20007", "PHONE": "202-827-4390", "NUMROOMS": null, "WEB_URL": "https://www.averygeorgetown.com/", "XCOORD": 395199.08, "YCOORD": 137931.28, "GIS_ID": "temp_162", "MAR_ID": 272383, "SE_ANNO_CAD_DATA": null, "CREATED": null, "EDITED": null, "GLOBALID": "{7AB6399C-509D-47EA-BBC3-CAAD4890041A}", "OBJECTID": 45 }, "geometry": { "type": "Point", "coordinates": [ -77.055355397867316, 38.909237050639341 ] } },
{ "type": "Feature", "properties": { "NAME": "CAMBRIA HOTEL WASHINGTON, DC CONVENTION CENTER", "ADDRESS": "899 O STREET NW", "ZIPCODE": "20001", "PHONE": "202-299-1188", "NUMROOMS": null, "WEB_URL": "https://www.cambriadc.com/en-us", "XCOORD": 397942.87, "YCOORD": 137876.5, "GIS_ID": "temp_150", "MAR_ID": 310640, "SE_ANNO_CAD_DATA": null, "CREATED": null, "EDITED": null, "GLOBALID": "{523B5C18-2F3B-4CB7-BCDE-684BA6F741AF}", "OBJECTID": 46 }, "geometry": { "type": "Point", "coordinates": [ -77.023720191160848, 38.908754279199314 ] } },
{ "type": "Feature", "properties": { "NAME": "BED AND BREAKFAST DC", "ADDRESS": "1339 14TH STREET NW", "ZIPCODE": "20005", "PHONE": "202-328-3510", "NUMROOMS": null, "WEB_URL": "https://www.bedandbreakfastdc.com", "XCOORD": 397256.45, "YCOORD": 137853.91, "GIS_ID": "temp_146", "MAR_ID": 229780, "SE_ANNO_CAD_DATA": null, "CREATED": null, "EDITED": null, "GLOBALID": "{B46B43B4-E3B0-45CA-B905-5211BC37BEA1}", "OBJECTID": 47 }, "geometry": { "type": "Point", "coordinates": [ -77.031634255398103, 38.908548905785473 ] } },
{ "type": "Feature", "properties": { "NAME": "THE MANSION ON O STREET", "ADDRESS": "2020 O STREET NW", "ZIPCODE": "20036", "PHONE": "202-496-2000", "NUMROOMS": 49, "WEB_URL": "http://omansion.com/lodging", "XCOORD": 396016.74, "YCOORD": 137836.91, "GIS_ID": "temp_93", "MAR_ID": 243057, "SE_ANNO_CAD_DATA": null, "CREATED": null, "EDITED": null, "GLOBALID": "{3B5D37DE-374D-4E9C-9857-676FDC604938}", "OBJECTID": 48 }, "geometry": { "type": "Point", "coordinates": [ -77.04592748681263, 38.908391019415262 ] } },
{ "type": "Feature", "properties": { "NAME": "DC LOFTY HOSTEL", "ADDRESS": "1333 11TH STREET NW", "ZIPCODE": "20001", "PHONE": "202-506-7106", "NUMROOMS": null, "WEB_URL": "http://dclofty.com/", "XCOORD": 397680.45, "YCOORD": 137828.4, "GIS_ID": "temp_31", "MAR_ID": 239320, "SE_ANNO_CAD_DATA": null, "CREATED": null, "EDITED": null, "GLOBALID": "{56D11201-FE3F-4F29-B9F2-B94C8481A8B4}", "OBJECTID": 49 }, "geometry": { "type": "Point", "coordinates": [ -77.026745628822255, 38.908320324278279 ] } },
{ "type": "Feature", "properties": { "NAME": "KIMPTON ROUGE HOTEL", "ADDRESS": "1315 16TH STREET NW", "ZIPCODE": "20036", "PHONE": "202-232-8000", "NUMROOMS": 137, "WEB_URL": "http://www.rougehotel.com/", "XCOORD": 396866.29, "YCOORD": 137823.52, "GIS_ID": "temp_120", "MAR_ID": 242317, "SE_ANNO_CAD_DATA": null, "CREATED": null, "EDITED": null, "GLOBALID": "{4AB29100-8457-4BC6-B50C-9FA31012FAB8}", "OBJECTID": 50 }, "geometry": { "type": "Point", "coordinates": [ -77.036132496079233, 38.908273837527794 ] } },
{ "type": "Feature", "properties": { "NAME": "HOLIDAY INN WASHINGTON DC-CENTRAL/WHITE HOUSE", "ADDRESS": "1501 RHODE ISLAND AVENUE NW", "ZIPCODE": "20005", "PHONE": "202-483-2000", "NUMROOMS": 212, "WEB_URL": "http://www.inndc.com/", "XCOORD": 396966.84, "YCOORD": 137806.79, "GIS_ID": "temp_110", "MAR_ID": 242311, "SE_ANNO_CAD_DATA": null, "CREATED": null, "EDITED": null, "GLOBALID": "{48811EEB-73D6-42C5-B8D3-7CDE9B212547}", "OBJECTID": 51 }, "geometry": { "type": "Point", "coordinates": [ -77.034973127776482, 38.908123480679485 ] } },
{ "type": "Feature", "properties": { "NAME": "KIMPTON MASON & ROOK HOTEL", "ADDRESS": "1430 RHODE ISLAND AVENUE NW", "ZIPCODE": "20005", "PHONE": "202-742-3100", "NUMROOMS": 178, "WEB_URL": "https://www.masonandrookhotel.com/", "XCOORD": 397137.34, "YCOORD": 137802.82, "GIS_ID": "temp_115", "MAR_ID": 279165, "SE_ANNO_CAD_DATA": null, "CREATED": null, "EDITED": null, "GLOBALID": "{12B658A4-BB3E-4E03-BFA0-0F431EA9865E}", "OBJECTID": 52 }, "geometry": { "type": "Point", "coordinates": [ -77.033007330217316, 38.90808828946205 ] } },
{ "type": "Feature", "properties": { "NAME": "THE DISTRICT HOTEL", "ADDRESS": "1440 RHODE ISLAND AVENUE NW", "ZIPCODE": "20005", "PHONE": "202-232-7800", "NUMROOMS": 58, "WEB_URL": "http://dcembassyinn.wixsite.com/district", "XCOORD": 397116.94, "YCOORD": 137792.42, "GIS_ID": "temp_32", "MAR_ID": 218282, "SE_ANNO_CAD_DATA": null, "CREATED": null, "EDITED": null, "GLOBALID": "{085A0BD9-E6EF-49B6-9C15-0A84B45F1725}", "OBJECTID": 53 }, "geometry": { "type": "Point", "coordinates": [ -77.033242488385156, 38.907994535970069 ] } },
{ "type": "Feature", "properties": { "NAME": "THE DARCY HOTEL", "ADDRESS": "1515 RHODE ISLAND AVENUE NW", "ZIPCODE": "20005", "PHONE": "202-232-7000", "NUMROOMS": 226, "WEB_URL": "https://www.thedarcyhotel.com/", "XCOORD": 396920.3, "YCOORD": 137786.81, "GIS_ID": "temp_34", "MAR_ID": 242312, "SE_ANNO_CAD_DATA": null, "CREATED": null, "EDITED": null, "GLOBALID": "{522B68A3-9693-417B-94CE-07781A10DEEA}", "OBJECTID": 54 }, "geometry": { "type": "Point", "coordinates": [ -77.035509621433434, 38.907943332057172 ] } },
{ "type": "Feature", "properties": { "NAME": "COURTYARD WASHINGTON, DC/U.S. CAPITOL", "ADDRESS": "1325 2ND STREET NE", "ZIPCODE": "20002", "PHONE": "202-898-4000", "NUMROOMS": 218, "WEB_URL": "http://www.marriott.com/hotels/travel/wasus-courtyard-washington-dc-us-capitol/", "XCOORD": 399725.6, "YCOORD": 137770.75, "GIS_ID": "temp_27", "MAR_ID": 304846, "SE_ANNO_CAD_DATA": null, "CREATED": null, "EDITED": null, "GLOBALID": "{C7ADF6DF-A2DA-47E8-B35C-BC145C25C3EC}", "OBJECTID": 55 }, "geometry": { "type": "Point", "coordinates": [ -77.003165966875855, 38.907804011792074 ] } },
{ "type": "Feature", "properties": { "NAME": "INN AT DUPONTÂ SOUTH", "ADDRESS": "1312 19TH STREET NW", "ZIPCODE": "20036", "PHONE": "202-359-8432", "NUMROOMS": 8, "WEB_URL": "http://www.thedupontcollection.com", "XCOORD": 396210.2, "YCOORD": 137765.64, "GIS_ID": "temp_52", "MAR_ID": 241066, "SE_ANNO_CAD_DATA": null, "CREATED": null, "EDITED": null, "GLOBALID": "{F69DDD06-025B-4E9D-99C3-D93B9C6A786B}", "OBJECTID": 56 }, "geometry": { "type": "Point", "coordinates": [ -77.043696586715541, 38.907749850118208 ] } },
{ "type": "Feature", "properties": { "NAME": "KIMPTON HOTEL MADERA", "ADDRESS": "1310 NEW HAMPSHIRE AVENUE NW", "ZIPCODE": "20036", "PHONE": "202-296-7600", "NUMROOMS": 82, "WEB_URL": "http://www.hotelmadera.com/", "XCOORD": 396031.56, "YCOORD": 137753.59, "GIS_ID": "temp_117", "MAR_ID": 243325, "SE_ANNO_CAD_DATA": null, "CREATED": null, "EDITED": null, "GLOBALID": "{3CFBC419-0C25-4603-8CC7-05020384B5CF}", "OBJECTID": 57 }, "geometry": { "type": "Point", "coordinates": [ -77.045756137362446, 38.90764051105905 ] } },
{ "type": "Feature", "properties": { "NAME": "HYATT PLACE WASHINGTON DC/US CAPITOL", "ADDRESS": "33 NEW YORK AVENUE NE", "ZIPCODE": "20002", "PHONE": "202-289-5599", "NUMROOMS": 200, "WEB_URL": "https://washingtondcuscapitol.place.hyatt.com/en/hotel/home.html", "XCOORD": 399333.46, "YCOORD": 137743.13, "GIS_ID": "temp_156", "MAR_ID": 37070, "SE_ANNO_CAD_DATA": null, "CREATED": null, "EDITED": null, "GLOBALID": "{F0625992-6010-42DD-9ACF-45CB6BC95B24}", "OBJECTID": 58 }, "geometry": { "type": "Point", "coordinates": [ -77.007687101108445, 38.907554991158378 ] } },
{ "type": "Feature", "properties": { "NAME": "TABARD INN", "ADDRESS": "1739 N STREET NW", "ZIPCODE": "20036", "PHONE": "202-785-1277", "NUMROOMS": 40, "WEB_URL": "http://www.tabardinn.com/", "XCOORD": 396531.39, "YCOORD": 137733.56, "GIS_ID": "temp_82", "MAR_ID": 218468, "SE_ANNO_CAD_DATA": null, "CREATED": null, "EDITED": null, "GLOBALID": "{D9AFB04B-9EB7-4154-984F-3FCA0CD869EB}", "OBJECTID": 59 }, "geometry": { "type": "Point", "coordinates": [ -77.039993281705947, 38.9074621886881 ] } },
{ "type": "Feature", "properties": { "NAME": "KIMPTON TOPAZ HOTEL", "ADDRESS": "1733 N STREET NW", "ZIPCODE": "20036", "PHONE": "202-393-3000", "NUMROOMS": 99, "WEB_URL": "http://www.topazhotel.com/", "XCOORD": 396555.85, "YCOORD": 137729.62, "GIS_ID": "temp_99", "MAR_ID": 241760, "SE_ANNO_CAD_DATA": null, "CREATED": null, "EDITED": null, "GLOBALID": "{D91A2871-852B-4A97-9005-6405566D0125}", "OBJECTID": 60 }, "geometry": { "type": "Point", "coordinates": [ -77.039711252816659, 38.907426791996478 ] } },
{ "type": "Feature", "properties": { "NAME": "GEORGETOWN INN", "ADDRESS": "1310 WISCONSIN AVENUE NW", "ZIPCODE": "20007", "PHONE": "202-333-8900", "NUMROOMS": 96, "WEB_URL": "http://www.georgetowninn.com/", "XCOORD": 394486.89, "YCOORD": 137707.09, "GIS_ID": "temp_46", "MAR_ID": 279035, "SE_ANNO_CAD_DATA": null, "CREATED": null, "EDITED": null, "GLOBALID": "{DD0E3E60-C410-4A13-98F1-7467C5960254}", "OBJECTID": 61 }, "geometry": { "type": "Point", "coordinates": [ -77.06356492457823, 38.907213290829191 ] } },
{ "type": "Feature", "properties": { "NAME": "BEACON HOTEL AND CORPORATE QUARTERS", "ADDRESS": "1615 RHODE ISLAND AVENUE NW", "ZIPCODE": "20036", "PHONE": "202-296-2100", "NUMROOMS": 60, "WEB_URL": "http://www.beaconhotelwdc.com/", "XCOORD": 396699.75, "YCOORD": 137688.48, "GIS_ID": "temp_8", "MAR_ID": 279263, "SE_ANNO_CAD_DATA": null, "CREATED": null, "EDITED": null, "GLOBALID": "{9D14F921-1303-4CC3-B63C-8E0743A9A810}", "OBJECTID": 62 }, "geometry": { "type": "Point", "coordinates": [ -77.038051975223496, 38.907056740721458 ] } },
{ "type": "Feature", "properties": { "NAME": "THE DISTRICT BY HILTON CLUB", "ADDRESS": "1250 22ND STREET NW", "ZIPCODE": "20037", "PHONE": "202-449-3100", "NUMROOMS": 318, "WEB_URL": "http://www3.hilton.com/en/hotels/district-of-columbia/the-district-by-hilton-club-WASVCGV/index.html", "XCOORD": 395711.33, "YCOORD": 137666.78, "GIS_ID": "temp_39", "MAR_ID": 242364, "SE_ANNO_CAD_DATA": null, "CREATED": null, "EDITED": null, "GLOBALID": "{AA49D678-1FFF-49FA-B70F-D1F4A9DF319B}", "OBJECTID": 63 }, "geometry": { "type": "Point", "coordinates": [ -77.049447664053702, 38.906856992130635 ] } },
{ "type": "Feature", "properties": { "NAME": "HOMEWOOD SUITES WASHINGTON, D.C. DOWNTOWN", "ADDRESS": "1475 MASSACHUSETTS AVENUE NW", "ZIPCODE": "20005", "PHONE": "202-265-8000", "NUMROOMS": 175, "WEB_URL": "http://homewoodsuites3.hilton.com/en/hotels/district-of-columbia/homewood-suites-by-hilton-washington-dc-downtown-WASHWHW/index.html", "XCOORD": 397087.19, "YCOORD": 137647.0, "GIS_ID": "temp_111", "MAR_ID": 279197, "SE_ANNO_CAD_DATA": null, "CREATED": null, "EDITED": null, "GLOBALID": "{7E38CA73-82FC-4569-8D7E-B90CA9E82FEB}", "OBJECTID": 64 }, "geometry": { "type": "Point", "coordinates": [ -77.033584873746179, 38.906684443937266 ] } },
{ "type": "Feature", "properties": { "NAME": "COURTYARD WASHINGTON EMBASSY ROW", "ADDRESS": "1600 RHODE ISLAND AVENUE NW", "ZIPCODE": "20036", "PHONE": "202-293-8000", "NUMROOMS": 158, "WEB_URL": "http://www.marriott.com/hotels/travel/wasem-courtyard-washington-embassy-row/", "XCOORD": 396793.26, "YCOORD": 137645.95, "GIS_ID": "temp_25", "MAR_ID": 242882, "SE_ANNO_CAD_DATA": null, "CREATED": null, "EDITED": null, "GLOBALID": "{D6986656-E280-4BB1-8AD1-166300325734}", "OBJECTID": 65 }, "geometry": { "type": "Point", "coordinates": [ -77.036973668520702, 38.906673961835509 ] } },
{ "type": "Feature", "properties": { "NAME": "DUO HOUSING HOSTEL", "ADDRESS": "1223 11TH STREET NW", "ZIPCODE": "20001", "PHONE": "202-808-2195", "NUMROOMS": null, "WEB_URL": "http://duohousing.com/", "XCOORD": 397681.39, "YCOORD": 137623.37, "GIS_ID": "temp_165", "MAR_ID": 239327, "SE_ANNO_CAD_DATA": null, "CREATED": null, "EDITED": null, "GLOBALID": "{C7DC6F45-8FA7-48EF-AE88-1E0D59160671}", "OBJECTID": 66 }, "geometry": { "type": "Point", "coordinates": [ -77.026734098726365, 38.90647334518966 ] } },
{ "type": "Feature", "properties": { "NAME": "THE CONCORDIA", "ADDRESS": "1250 NEW HAMPSHIRE AVENUE NW", "ZIPCODE": "20036", "PHONE": "202-557-2000", "NUMROOMS": 121, "WEB_URL": "http://www.theconcordia.com/", "XCOORD": 395929.32, "YCOORD": 137614.63, "GIS_ID": "temp_84", "MAR_ID": 279009, "SE_ANNO_CAD_DATA": null, "CREATED": null, "EDITED": null, "GLOBALID": "{370BE2B9-598C-48AE-A663-95A126741134}", "OBJECTID": 67 }, "geometry": { "type": "Point", "coordinates": [ -77.046934082398678, 38.906388243457585 ] } },
{ "type": "Feature", "properties": { "NAME": "HILTON GARDEN INN WASHINGTON DC/U.S. CAPITOL", "ADDRESS": "1225 1ST STREET NE", "ZIPCODE": "20002", "PHONE": "202-408-4870", "NUMROOMS": 204, "WEB_URL": "http://hiltongardeninn3.hilton.com/en/hotels/district-of-columbia/hilton-garden-inn-washington-dc-us-capitol-DCANMGI/index.html", "XCOORD": 399512.86, "YCOORD": 137601.44, "GIS_ID": "temp_108", "MAR_ID": 307284, "SE_ANNO_CAD_DATA": null, "CREATED": null, "EDITED": null, "GLOBALID": "{52F8C669-0E2C-4C0F-B03D-E5C1B69A1AD6}", "OBJECTID": 68 }, "geometry": { "type": "Point", "coordinates": [ -77.005618623256652, 38.906278715995896 ] } },
{ "type": "Feature", "properties": { "NAME": "WASHINGTON PLAZA HOTEL", "ADDRESS": "10 THOMAS CIRCLE NW", "ZIPCODE": "20005", "PHONE": "202-842-1300", "NUMROOMS": 355, "WEB_URL": "http://www.washingtonplazahotel.com/", "XCOORD": 397313.44, "YCOORD": 137599.78, "GIS_ID": "temp_128", "MAR_ID": 298252, "SE_ANNO_CAD_DATA": null, "CREATED": null, "EDITED": null, "GLOBALID": "{11686F92-48BB-40C7-8188-24D7E88FC08B}", "OBJECTID": 69 }, "geometry": { "type": "Point", "coordinates": [ -77.030976190565056, 38.906259790439215 ] } },
{ "type": "Feature", "properties": { "NAME": "WASHINGTON MARRIOTT GEORGETOWN", "ADDRESS": "1221 22ND STREET NW", "ZIPCODE": "20037", "PHONE": "202-872-1500", "NUMROOMS": 470, "WEB_URL": "http://www.marriott.com/hotels/travel/waswe-washington-marriott/", "XCOORD": 395794.15, "YCOORD": 137580.78, "GIS_ID": "temp_126", "MAR_ID": 300163, "SE_ANNO_CAD_DATA": null, "CREATED": null, "EDITED": null, "GLOBALID": "{12270AC1-9724-4DF6-9BAF-D480D6823409}", "OBJECTID": 70 }, "geometry": { "type": "Point", "coordinates": [ -77.048492280563565, 38.906082674392266 ] } },
{ "type": "Feature", "properties": { "NAME": "THE JEFFERSON, WASHINGTON, DC", "ADDRESS": "1200 16TH STREET NW", "ZIPCODE": "20036", "PHONE": "202-448-2300", "NUMROOMS": 96, "WEB_URL": "http://www.jeffersondc.com/", "XCOORD": 396794.58, "YCOORD": 137565.11, "GIS_ID": "temp_54", "MAR_ID": 242021, "SE_ANNO_CAD_DATA": null, "CREATED": null, "EDITED": null, "GLOBALID": "{82FB4315-1206-4796-B368-EF010292CE0D}", "OBJECTID": 71 }, "geometry": { "type": "Point", "coordinates": [ -77.036958072529316, 38.905945731691943 ] } },
{ "type": "Feature", "properties": { "NAME": "SAINT GREGORY", "ADDRESS": "2033 M STREET NW", "ZIPCODE": "20036", "PHONE": "202-530-3600", "NUMROOMS": 155, "WEB_URL": "http://www.stgregoryhotelwdc.com/", "XCOORD": 395985.66, "YCOORD": 137561.81, "GIS_ID": "temp_77", "MAR_ID": 279520, "SE_ANNO_CAD_DATA": null, "CREATED": null, "EDITED": null, "GLOBALID": "{BFD54571-FD54-43AF-91A7-86BA67EDEA92}", "OBJECTID": 72 }, "geometry": { "type": "Point", "coordinates": [ -77.046284217026738, 38.905912681597002 ] } },
{ "type": "Feature", "properties": { "NAME": "COMFORT INN DOWNTOWN DC/CONVENTION CENTER", "ADDRESS": "1201 13TH STREET NW", "ZIPCODE": "20005", "PHONE": "202-682-5300", "NUMROOMS": 100, "WEB_URL": "https://www.dcdowntownhotel.com/", "XCOORD": 397454.33, "YCOORD": 137561.18, "GIS_ID": "temp_22", "MAR_ID": 240912, "SE_ANNO_CAD_DATA": null, "CREATED": null, "EDITED": null, "GLOBALID": "{3C15ABA4-53C5-40A0-A14B-6DBC1BD986DA}", "OBJECTID": 73 }, "geometry": { "type": "Point", "coordinates": [ -77.029351697592517, 38.905912487530713 ] } },
{ "type": "Feature", "properties": { "NAME": "KELLOGG CONFERENCE HOTEL AT GALLAUDET UNIVERSITY", "ADDRESS": "800 FLORIDA AVENUE NE", "ZIPCODE": "20002", "PHONE": "202-651-6000", "NUMROOMS": 97, "WEB_URL": "http://kelloggconferencehotel.com/index.php", "XCOORD": 400439.78, "YCOORD": 137546.46, "GIS_ID": "temp_43", "MAR_ID": 288964, "SE_ANNO_CAD_DATA": null, "CREATED": null, "EDITED": null, "GLOBALID": "{6703DC44-83E2-4B90-80A1-DB6A189E0355}", "OBJECTID": 74 }, "geometry": { "type": "Point", "coordinates": [ -76.994932003142438, 38.905783462255712 ] } },
{ "type": "Feature", "properties": { "NAME": "PARK HYATT WASHINGTON", "ADDRESS": "1201 24TH STREET NW", "ZIPCODE": "20037", "PHONE": "202-789-1234", "NUMROOMS": 216, "WEB_URL": "http://parkwashington.hyatt.com/en/hotel/home.html", "XCOORD": 395565.69, "YCOORD": 137542.45, "GIS_ID": "temp_66", "MAR_ID": 242765, "SE_ANNO_CAD_DATA": null, "CREATED": null, "EDITED": null, "GLOBALID": "{1ACFC627-E85D-4D08-A02B-053218A2E020}", "OBJECTID": 75 }, "geometry": { "type": "Point", "coordinates": [ -77.051125988712556, 38.905736261395624 ] } },
{ "type": "Feature", "properties": { "NAME": "THE FAIRMONT", "ADDRESS": "2401 M STREET NW", "ZIPCODE": "20037", "PHONE": "202-429-2400", "NUMROOMS": 415, "WEB_URL": "http://www.fairmont.com/washington/", "XCOORD": 395509.26, "YCOORD": 137522.61, "GIS_ID": "temp_89", "MAR_ID": 273950, "SE_ANNO_CAD_DATA": null, "CREATED": null, "EDITED": null, "GLOBALID": "{96C6AB1A-48BF-4315-94B6-FF12C3F02233}", "OBJECTID": 76 }, "geometry": { "type": "Point", "coordinates": [ -77.051776447238083, 38.905557249219171 ] } },
{ "type": "Feature", "properties": { "NAME": "HYATT PLACE WASHINGTON DC/GEORGETOWN/WEST END", "ADDRESS": "2121 M STREET NW", "ZIPCODE": "20037", "PHONE": "202-838-2222", "NUMROOMS": 168, "WEB_URL": "https://www.hyatt.com/en-US/hotel/washington-dc/hyatt-place-washington-dc-georgetown-west-end/waszm", "XCOORD": 395823.06, "YCOORD": 137519.47, "GIS_ID": "temp_154", "MAR_ID": 310698, "SE_ANNO_CAD_DATA": null, "CREATED": null, "EDITED": null, "GLOBALID": "{C0ACC0FD-393E-4046-AA53-E8942AC3DB5A}", "OBJECTID": 77 }, "geometry": { "type": "Point", "coordinates": [ -77.048158599154789, 38.905530510347923 ] } },
{ "type": "Feature", "properties": { "NAME": "HILTON GARDEN INN WASHINGTON DC/GEORGETOWN AREA", "ADDRESS": "2201 M STREET NW", "ZIPCODE": "20037", "PHONE": "202-947-6010", "NUMROOMS": null, "WEB_URL": "http://hiltongardeninn3.hilton.com/en/hotels/district-of-columbia/hilton-garden-inn-washington-dc-georgetown-area-WASWEGI/index.html", "XCOORD": 395744.3, "YCOORD": 137516.99, "GIS_ID": "temp_149", "MAR_ID": 243160, "SE_ANNO_CAD_DATA": null, "CREATED": null, "EDITED": null, "GLOBALID": "{1F5CE6A1-B2C7-400F-9E40-251311B512F7}", "OBJECTID": 78 }, "geometry": { "type": "Point", "coordinates": [ -77.04906661470541, 38.905507791804673 ] } },
{ "type": "Feature", "properties": { "NAME": "MT. VERNON SQUARE BED & BREAKFAST", "ADDRESS": "400 M STREET NW", "ZIPCODE": "20001", "PHONE": "888-399-5496", "NUMROOMS": 5, "WEB_URL": "http://mvsbed.com/", "XCOORD": 398581.36, "YCOORD": 137512.45, "GIS_ID": "temp_169", "MAR_ID": 237558, "SE_ANNO_CAD_DATA": null, "CREATED": null, "EDITED": null, "GLOBALID": "{5DF0FDD4-D5D2-4449-98F9-A7E3EB160868}", "OBJECTID": 79 }, "geometry": { "type": "Point", "coordinates": [ -77.016357898304264, 38.9054760526301 ] } },
{ "type": "Feature", "properties": { "NAME": "THE MADISON WASHINGTON DC, A HILTON HOTEL", "ADDRESS": "1177 15TH STREET NW", "ZIPCODE": "20005", "PHONE": "202-862-1600", "NUMROOMS": 365, "WEB_URL": "http://www3.hilton.com/en/hotels/district-of-columbia/the-madison-washington-dc-a-hilton-hotel-DCAKEHH/accommodations/index.html", "XCOORD": 397045.73, "YCOORD": 137501.85, "GIS_ID": "temp_57", "MAR_ID": 240251, "SE_ANNO_CAD_DATA": null, "CREATED": null, "EDITED": null, "GLOBALID": "{17B680FD-6CDA-4958-8B39-7CC8BA092E53}", "OBJECTID": 80 }, "geometry": { "type": "Point", "coordinates": [ -77.034062253018988, 38.905376743560275 ] } },
{ "type": "Feature", "properties": { "NAME": "THE WESTIN WASHINGTON, D.C. CITY CENTER", "ADDRESS": "1400 M STREET NW", "ZIPCODE": "20005", "PHONE": "202-429-1700", "NUMROOMS": 406, "WEB_URL": "http://www.starwoodhotels.com/westin/property/overview/index.html?propertyID=1761", "XCOORD": 397099.84, "YCOORD": 137495.93, "GIS_ID": "temp_97", "MAR_ID": 240254, "SE_ANNO_CAD_DATA": null, "CREATED": null, "EDITED": null, "GLOBALID": "{858BE937-D3A2-4481-AFB7-7EA1DF02DE7E}", "OBJECTID": 81 }, "geometry": { "type": "Point", "coordinates": [ -77.033438390397478, 38.905323594345752 ] } },
{ "type": "Feature", "properties": { "NAME": "KIMPTON DONOVAN HOTEL", "ADDRESS": "1155 14TH STREET NW", "ZIPCODE": "20005", "PHONE": "202-737-1200", "NUMROOMS": 193, "WEB_URL": "http://www.donovanhousehotel.com/", "XCOORD": 397261.85, "YCOORD": 137470.8, "GIS_ID": "temp_33", "MAR_ID": 242940, "SE_ANNO_CAD_DATA": null, "CREATED": null, "EDITED": null, "GLOBALID": "{5DDF92AD-53CE-455B-B5C8-66EA0E9798E0}", "OBJECTID": 82 }, "geometry": { "type": "Point", "coordinates": [ -77.031570468014294, 38.905097734164372 ] } },
{ "type": "Feature", "properties": { "NAME": "THE WESTIN GEORGETOWN, WASHINGTON D.C.", "ADDRESS": "2350 M STREET NW", "ZIPCODE": "20037", "PHONE": "202-429-0100", "NUMROOMS": 267, "WEB_URL": "http://www.westingeorgetown.com/", "XCOORD": 395568.16, "YCOORD": 137458.44, "GIS_ID": "temp_129", "MAR_ID": 242338, "SE_ANNO_CAD_DATA": null, "CREATED": null, "EDITED": null, "GLOBALID": "{6279977C-00E8-46E6-B9F2-30BE10019533}", "OBJECTID": 83 }, "geometry": { "type": "Point", "coordinates": [ -77.051096969629626, 38.90497948235403 ] } },
{ "type": "Feature", "properties": { "NAME": "THE GRAHAM GEORGETOWN", "ADDRESS": "1075 THOMAS JEFFERSON STREET NW", "ZIPCODE": "20007", "PHONE": "202-337-0900", "NUMROOMS": 57, "WEB_URL": "https://www.thegrahamgeorgetown.com/", "XCOORD": 394802.56, "YCOORD": 137438.57, "GIS_ID": "temp_90", "MAR_ID": 273855, "SE_ANNO_CAD_DATA": null, "CREATED": null, "EDITED": null, "GLOBALID": "{E4FD09BD-F9CB-4636-86FB-2FC3BA665658}", "OBJECTID": 84 }, "geometry": { "type": "Point", "coordinates": [ -77.059923419721585, 38.904796292506056 ] } },
{ "type": "Feature", "properties": { "NAME": "THE WINK WASHINGTON DC", "ADDRESS": "1143 NEW HAMPSHIRE AVENUE NW", "ZIPCODE": "20037", "PHONE": "202-775-0800", "NUMROOMS": 346, "WEB_URL": "https://www.thewinkhoteldc.com/", "XCOORD": 395874.56, "YCOORD": 137431.64, "GIS_ID": "temp_68", "MAR_ID": 243210, "SE_ANNO_CAD_DATA": null, "CREATED": null, "EDITED": null, "GLOBALID": "{E2D97D66-86BF-4192-9DC4-B30052D58D44}", "OBJECTID": 85 }, "geometry": { "type": "Point", "coordinates": [ -77.047564323530608, 38.904739550146509 ] } },
{ "type": "Feature", "properties": { "NAME": "FOUR SEASONS HOTEL", "ADDRESS": "2800 PENNSYLVANIA AVENUE NW", "ZIPCODE": "20007", "PHONE": "202-342-0444", "NUMROOMS": 222, "WEB_URL": "http://www.fourseasons.com/washington/", "XCOORD": 395034.79, "YCOORD": 137427.61, "GIS_ID": "temp_42", "MAR_ID": 279626, "SE_ANNO_CAD_DATA": null, "CREATED": null, "EDITED": null, "GLOBALID": "{DED3E56E-8888-425F-8BB9-A62E87C72CBF}", "OBJECTID": 86 }, "geometry": { "type": "Point", "coordinates": [ -77.057245968226255, 38.904698903583061 ] } },
{ "type": "Feature", "properties": { "NAME": "THE RITZ-CARLTON, WASHINGTON, D.C.", "ADDRESS": "1150 22ND STREET NW", "ZIPCODE": "20037", "PHONE": "202-835-0500", "NUMROOMS": 300, "WEB_URL": "http://www.ritzcarlton.com/en/Properties/WashingtonDC/Default.htm", "XCOORD": 395743.76, "YCOORD": 137408.03, "GIS_ID": "temp_74", "MAR_ID": 278889, "SE_ANNO_CAD_DATA": null, "CREATED": null, "EDITED": null, "GLOBALID": "{1C1D21F4-C7F0-4410-A4CA-C3F0A4C3151B}", "OBJECTID": 87 }, "geometry": { "type": "Point", "coordinates": [ -77.04907216510658, 38.904526239279939 ] } },
{ "type": "Feature", "properties": { "NAME": "THE MAYFLOWER HOTEL, AUTOGRAPH COLLECTION", "ADDRESS": "1127 CONNECTICUT AVENUE NW", "ZIPCODE": "20036", "PHONE": "202-347-3000", "NUMROOMS": 657, "WEB_URL": "https://www.marriott.com/hotels/travel/wasak-the-mayflower-hotel-autograph-collection/", "XCOORD": 396576.73, "YCOORD": 137399.13, "GIS_ID": "temp_94", "MAR_ID": 241797, "SE_ANNO_CAD_DATA": null, "CREATED": null, "EDITED": null, "GLOBALID": "{AA3E3FF5-1C57-4B1C-893F-61501B4E543D}", "OBJECTID": 88 }, "geometry": { "type": "Point", "coordinates": [ -77.039468871557901, 38.904449704043273 ] } },
{ "type": "Feature", "properties": { "NAME": "THE ELDON LUXURY SUITES", "ADDRESS": "933 L STREET NW", "ZIPCODE": "20001", "PHONE": "202-540-5000", "NUMROOMS": 50, "WEB_URL": "http://eldonsuites.com/", "XCOORD": 397797.04, "YCOORD": 137397.0, "GIS_ID": "temp_86", "MAR_ID": 239808, "SE_ANNO_CAD_DATA": null, "CREATED": null, "EDITED": null, "GLOBALID": "{5D8F2C8F-FC8B-4A7E-9130-483AA7844B5D}", "OBJECTID": 89 }, "geometry": { "type": "Point", "coordinates": [ -77.025400015781869, 38.904434422264387 ] } },
{ "type": "Feature", "properties": { "NAME": "RESIDENCE INN WASHINGTON, DC DOWNTOWN", "ADDRESS": "1199 VERMONT AVENUE NW", "ZIPCODE": "20005", "PHONE": "202-898-1100", "NUMROOMS": 202, "WEB_URL": "http://www.marriott.com/hotels/travel/wasdc-residence-inn-washington-dc-downtown/", "XCOORD": 397192.18, "YCOORD": 137395.97, "GIS_ID": "temp_70", "MAR_ID": 278914, "SE_ANNO_CAD_DATA": null, "CREATED": null, "EDITED": null, "GLOBALID": "{49EA08F1-A584-4848-ACE7-F23F202C0522}", "OBJECTID": 90 }, "geometry": { "type": "Point", "coordinates": [ -77.032373388759368, 38.904423419359667 ] } },
{ "type": "Feature", "properties": { "NAME": "MORRISON-CLARK INN", "ADDRESS": "1011 L STREET NW", "ZIPCODE": "20001", "PHONE": "202-898-1200", "NUMROOMS": 114, "WEB_URL": "http://www.morrisonclark.com/", "XCOORD": 397701.22, "YCOORD": 137391.54, "GIS_ID": "temp_61", "MAR_ID": 239355, "SE_ANNO_CAD_DATA": null, "CREATED": null, "EDITED": null, "GLOBALID": "{D0173C37-D06E-4A19-9CBA-AC11176D7C6E}", "OBJECTID": 91 }, "geometry": { "type": "Point", "coordinates": [ -77.026504697790955, 38.904384991245557 ] } },
{ "type": "Feature", "properties": { "NAME": "HOMEWOOD SUITES WASHINGTON DC CONVENTION CENTER", "ADDRESS": "465 NEW YORK AVENUE NW", "ZIPCODE": "20001", "PHONE": "202-628-4663", "NUMROOMS": null, "WEB_URL": "http://homewoodsuites3.hilton.com/en/hotels/district-of-columbia/homewood-suites-by-hilton-washington-dc-convention-center-WASCOHW", "XCOORD": 398413.46, "YCOORD": 137391.34, "GIS_ID": "temp_139", "MAR_ID": 279794, "SE_ANNO_CAD_DATA": null, "CREATED": null, "EDITED": null, "GLOBALID": "{45562536-E2FD-4CAA-AFC8-6E480170F286}", "OBJECTID": 92 }, "geometry": { "type": "Point", "coordinates": [ -77.018293350998022, 38.904384764010373 ] } },
{ "type": "Feature", "properties": { "NAME": "GEORGETWON SUITES 30TH STREET", "ADDRESS": "1111 30TH STREET NW", "ZIPCODE": "20007", "PHONE": "202-298-7800", "NUMROOMS": 220, "WEB_URL": "http://www.georgetownsuites.com/", "XCOORD": 394887.13, "YCOORD": 137391.1, "GIS_ID": "temp_49", "MAR_ID": 294968, "SE_ANNO_CAD_DATA": null, "CREATED": null, "EDITED": null, "GLOBALID": "{B94C8132-1DA0-4A30-8089-149E877B35C7}", "OBJECTID": 93 }, "geometry": { "type": "Point", "coordinates": [ -77.058948061493879, 38.904369162116431 ] } },
{ "type": "Feature", "properties": { "NAME": "RESIDENCE INN WASHINGTON DOWNTOWN/CONVENTION CENTER", "ADDRESS": "901 L STREET NW", "ZIPCODE": "20001", "PHONE": "202-408-5300", "NUMROOMS": null, "WEB_URL": "https://www.marriott.com/hotels/maps/travel/wasrd-residence-inn-washington-downtown-convention-center/", "XCOORD": 397891.94, "YCOORD": 137388.16, "GIS_ID": "temp_157", "MAR_ID": 313138, "SE_ANNO_CAD_DATA": null, "CREATED": null, "EDITED": null, "GLOBALID": "{C256B9F8-315B-4F7D-990A-0213422ABE5C}", "OBJECTID": 94 }, "geometry": { "type": "Point", "coordinates": [ -77.024305894948526, 38.904355021185985 ] } },
{ "type": "Feature", "properties": { "NAME": "COURTYARD WASHINGTON DOWNTOWN/CONVENTION CENTER", "ADDRESS": "901 L STREET NW", "ZIPCODE": "20001", "PHONE": "202-589-1800", "NUMROOMS": null, "WEB_URL": "https://www.marriott.com/hotels/travel/wasyv-courtyard-washington-downtown-convention-center/", "XCOORD": 397891.94, "YCOORD": 137388.16, "GIS_ID": "temp_148", "MAR_ID": 313138, "SE_ANNO_CAD_DATA": null, "CREATED": null, "EDITED": null, "GLOBALID": "{34F617F5-C71E-49CA-8407-DAFAAC8EA6DD}", "OBJECTID": 95 }, "geometry": { "type": "Point", "coordinates": [ -77.024190916689619, 38.90435341453982 ] } },
{ "type": "Feature", "properties": { "NAME": "THE GEORGETOWN HOUSE", "ADDRESS": "1061 31ST STREET NW", "ZIPCODE": "20007", "PHONE": "202-827-4294", "NUMROOMS": 11, "WEB_URL": "https://www.thegeorgetownhousedc.com/", "XCOORD": 394711.7, "YCOORD": 137387.34, "GIS_ID": "temp_163", "MAR_ID": 273844, "SE_ANNO_CAD_DATA": null, "CREATED": null, "EDITED": null, "GLOBALID": "{2C4C504C-B234-45ED-9FFD-D044DE926FB4}", "OBJECTID": 96 }, "geometry": { "type": "Point", "coordinates": [ -77.060970547244963, 38.904334252698057 ] } },
{ "type": "Feature", "properties": { "NAME": "GEORGETOWN INN WEST END", "ADDRESS": "1121 NEW HAMPSHIRE AVENUE NW", "ZIPCODE": "20037", "PHONE": "202-457-0565", "NUMROOMS": 76, "WEB_URL": "https://www.georgetowninnwestend.com/", "XCOORD": 395840.73, "YCOORD": 137384.06, "GIS_ID": "temp_9", "MAR_ID": 242738, "SE_ANNO_CAD_DATA": null, "CREATED": null, "EDITED": null, "GLOBALID": "{655B1401-6C08-4620-A1BF-CA6D9F1F3145}", "OBJECTID": 97 }, "geometry": { "type": "Point", "coordinates": [ -77.047954060067184, 38.90431077332758 ] } },
{ "type": "Feature", "properties": { "NAME": "ROSEWOOD WASHINGTON, D.C.", "ADDRESS": "1050 31ST STREET NW", "ZIPCODE": "20007", "PHONE": "202-617-2400", "NUMROOMS": 61, "WEB_URL": "https://www.rosewoodhotels.com/en/washington-dc", "XCOORD": 394669.37, "YCOORD": 137349.83, "GIS_ID": "temp_12", "MAR_ID": 273780, "SE_ANNO_CAD_DATA": null, "CREATED": null, "EDITED": null, "GLOBALID": "{CE7405BF-83BE-4600-B31A-01BAD14E1242}", "OBJECTID": 98 }, "geometry": { "type": "Point", "coordinates": [ -77.061458274139781, 38.903996093723499 ] } },
{ "type": "Feature", "properties": { "NAME": "HOTEL RL", "ADDRESS": "1823 L STREET NW", "ZIPCODE": "20036", "PHONE": "202-223-4320", "NUMROOMS": 99, "WEB_URL": "https://www.redlion.com/washington-dc", "XCOORD": 396295.71, "YCOORD": 137347.68, "GIS_ID": "temp_96", "MAR_ID": 241297, "SE_ANNO_CAD_DATA": null, "CREATED": null, "EDITED": null, "GLOBALID": "{4782822B-79C4-45C1-8D8C-12E1FFE348DD}", "OBJECTID": 99 }, "geometry": { "type": "Point", "coordinates": [ -77.042708449186819, 38.903985084814892 ] } },
{ "type": "Feature", "properties": { "NAME": "THE ARCHITECT HOTEL", "ADDRESS": "1025 15TH STREET NW", "ZIPCODE": "20005", "PHONE": "202-408-8200", "NUMROOMS": null, "WEB_URL": "http://www.thearchitecthotel.com/", "XCOORD": 397027.85, "YCOORD": 137299.82, "GIS_ID": "temp_161", "MAR_ID": 278793, "SE_ANNO_CAD_DATA": null, "CREATED": null, "EDITED": null, "GLOBALID": "{02901E55-29B9-4AD1-A931-BECEF2140038}", "OBJECTID": 100 }, "geometry": { "type": "Point", "coordinates": [ -77.034267518286612, 38.90355672583528 ] } },
{ "type": "Feature", "properties": { "NAME": "AVENUE SUITES HOTEL", "ADDRESS": "2500 PENNSYLVANIA AVENUE NW", "ZIPCODE": "20037", "PHONE": "202-333-8060", "NUMROOMS": 124, "WEB_URL": "https://www.avenuesuitesgeorgetown.com/", "XCOORD": 395344.68, "YCOORD": 137287.83, "GIS_ID": "temp_7", "MAR_ID": 273885, "SE_ANNO_CAD_DATA": null, "CREATED": null, "EDITED": null, "GLOBALID": "{05257E97-AEFF-4567-96E0-0D4A20F34866}", "OBJECTID": 101 }, "geometry": { "type": "Point", "coordinates": [ -77.053672313588734, 38.903441412135884 ] } },
{ "type": "Feature", "properties": { "NAME": "ONE WASHINGTON CIRCLE HOTEL", "ADDRESS": "1 WASHINGTON CIRCLE NW", "ZIPCODE": "20037", "PHONE": "202-872-1680", "NUMROOMS": 151, "WEB_URL": "http://www.thecirclehotel.com/", "XCOORD": 395686.8, "YCOORD": 137280.7, "GIS_ID": "temp_65", "MAR_ID": 242366, "SE_ANNO_CAD_DATA": null, "CREATED": null, "EDITED": null, "GLOBALID": "{6E5B4C63-D6D4-4AB2-BEDE-2B6F7F38C958}", "OBJECTID": 102 }, "geometry": { "type": "Point", "coordinates": [ -77.04972805298091, 38.903378928066132 ] } },
{ "type": "Feature", "properties": { "NAME": "MARRIOT MARQUIS WASHINGTON, DC", "ADDRESS": "901 MASSACHUSETTS AVENUE NW", "ZIPCODE": "20001", "PHONE": "202-824-9200", "NUMROOMS": 1175, "WEB_URL": "https://www.marriott.com/hotels/travel/wasco-marriott-marquis-washington-dc", "XCOORD": 397900.49, "YCOORD": 137268.87, "GIS_ID": "temp_125", "MAR_ID": 239811, "SE_ANNO_CAD_DATA": null, "CREATED": null, "EDITED": null, "GLOBALID": "{5BD2A1F8-5A23-4EA2-B8B1-4A96D9D305E5}", "OBJECTID": 103 }, "geometry": { "type": "Point", "coordinates": [ -77.024206958150828, 38.903280435129034 ] } },
{ "type": "Feature", "properties": { "NAME": "RITZ-CARLTON GEORGETOWN", "ADDRESS": "3100 SOUTH STREET NW", "ZIPCODE": "20007", "PHONE": "202-912-4100", "NUMROOMS": 86, "WEB_URL": "http://www.ritzcarlton.com/en/hotels/washington-dc/georgetown", "XCOORD": 394648.0, "YCOORD": 137263.68, "GIS_ID": "temp_75", "MAR_ID": 300061, "SE_ANNO_CAD_DATA": null, "CREATED": null, "EDITED": null, "GLOBALID": "{04F244E0-1573-4BED-8780-47284D048B0A}", "OBJECTID": 104 }, "geometry": { "type": "Point", "coordinates": [ -77.06170397406035, 38.903219894297806 ] } },
{ "type": "Feature", "properties": { "NAME": "HENLEY PARK HOTEL", "ADDRESS": "926 MASSACHUSETTS AVENUE NW", "ZIPCODE": "20001", "PHONE": "202-638-5200", "NUMROOMS": 96, "WEB_URL": "http://www.henleypark.com/", "XCOORD": 397770.07, "YCOORD": 137254.95, "GIS_ID": "temp_105", "MAR_ID": 242922, "SE_ANNO_CAD_DATA": null, "CREATED": null, "EDITED": null, "GLOBALID": "{56A3E237-36EB-4003-8845-9E4ADAD1B9F5}", "OBJECTID": 105 }, "geometry": { "type": "Point", "coordinates": [ -77.025710489248368, 38.903154717589196 ] } },
{ "type": "Feature", "properties": { "NAME": "CAPITAL HILTON", "ADDRESS": "1001 16TH STREET NW", "ZIPCODE": "20036", "PHONE": "202-393-1000", "NUMROOMS": 541, "WEB_URL": "http://www3.hilton.com/en/hotels/district-of-columbia/capital-hilton-DCASHHH/index.html", "XCOORD": 396883.19, "YCOORD": 137252.47, "GIS_ID": "temp_13", "MAR_ID": 278775, "SE_ANNO_CAD_DATA": null, "CREATED": null, "EDITED": null, "GLOBALID": "{ECC6D70D-952B-4B14-A8EB-F625B4DB02B2}", "OBJECTID": 106 }, "geometry": { "type": "Point", "coordinates": [ -77.035935055127439, 38.903129679160735 ] } },
{ "type": "Feature", "properties": { "NAME": "MELROSE GEORGETOWN HOTEL", "ADDRESS": "2430 PENNSYLVANIA AVENUE NW", "ZIPCODE": "20037", "PHONE": "202-955-6400", "NUMROOMS": 277, "WEB_URL": "http://www.melrosehoteldc.com/", "XCOORD": 395430.7, "YCOORD": 137240.97, "GIS_ID": "temp_60", "MAR_ID": 279592, "SE_ANNO_CAD_DATA": null, "CREATED": null, "EDITED": null, "GLOBALID": "{B1E15437-F4E3-443B-B85E-1BC75BDD907E}", "OBJECTID": 107 }, "geometry": { "type": "Point", "coordinates": [ -77.052680298792922, 38.903019732091458 ] } },
{ "type": "Feature", "properties": { "NAME": "GEORGETOWN SUITES HARBOUR", "ADDRESS": "1000 29TH STREET NW", "ZIPCODE": "20007", "PHONE": "202-298-7800", "NUMROOMS": 222, "WEB_URL": "http://www.georgetownsuites.com/", "XCOORD": 394938.04, "YCOORD": 137231.28, "GIS_ID": "temp_47", "MAR_ID": 276422, "SE_ANNO_CAD_DATA": null, "CREATED": null, "EDITED": null, "GLOBALID": "{FC49DC2C-C10D-4815-AE6A-A2D4C65206B7}", "OBJECTID": 108 }, "geometry": { "type": "Point", "coordinates": [ -77.058359947281559, 38.902929741892137 ] } },
{ "type": "Feature", "properties": { "NAME": "HAMILTON HOTEL WASHINGTON DC", "ADDRESS": "1001 14TH STREET NW", "ZIPCODE": "20005", "PHONE": "202-682-0111", "NUMROOMS": 301, "WEB_URL": "http://www.hamiltonhoteldc.com/", "XCOORD": 397260.09, "YCOORD": 137229.87, "GIS_ID": "temp_51", "MAR_ID": 240644, "SE_ANNO_CAD_DATA": null, "CREATED": null, "EDITED": null, "GLOBALID": "{E522A5DD-6379-465A-B2A1-BD4D6D356C70}", "OBJECTID": 109 }, "geometry": { "type": "Point", "coordinates": [ -77.031589797823244, 38.902927346129097 ] } },
{ "type": "Feature", "properties": { "NAME": "EATON WASHINGTON DC", "ADDRESS": "1201 K STREET NW", "ZIPCODE": "20005", "PHONE": "202-289-7600", "NUMROOMS": 209, "WEB_URL": "https://www.eatonworkshop.com/hotel/dc", "XCOORD": 397531.09, "YCOORD": 137229.35, "GIS_ID": "temp_144", "MAR_ID": 243282, "SE_ANNO_CAD_DATA": null, "CREATED": null, "EDITED": null, "GLOBALID": "{6133E994-CB72-4143-81A3-93A5B21A149A}", "OBJECTID": 110 }, "geometry": { "type": "Point", "coordinates": [ -77.028465527004272, 38.902923464848371 ] } },
{ "type": "Feature", "properties": { "NAME": "HI WASHINGTON DC HOSTEL", "ADDRESS": "1009 11TH STREET NW", "ZIPCODE": "20001", "PHONE": "202-737-2333", "NUMROOMS": 250, "WEB_URL": "http://www.hiusa.org/washingtondc/", "XCOORD": 397679.23, "YCOORD": 137228.7, "GIS_ID": "temp_112", "MAR_ID": 239366, "SE_ANNO_CAD_DATA": null, "CREATED": null, "EDITED": null, "GLOBALID": "{E9548CC0-E098-46C7-AE6D-0313A4687E93}", "OBJECTID": 111 }, "geometry": { "type": "Point", "coordinates": [ -77.026757668056547, 38.90291801308684 ] } },
{ "type": "Feature", "properties": { "NAME": "HYATT PLACE WASHINGTON DC/WHITE HOUSE", "ADDRESS": "1522 K STREET NW", "ZIPCODE": "20005", "PHONE": "202-830-1900", "NUMROOMS": 164, "WEB_URL": "https://www.hyatt.com/en-US/hotel/washington-dc/hyatt-place-washington-dc-white-house/waszw", "XCOORD": 396906.88, "YCOORD": 137144.67, "GIS_ID": "temp_152", "MAR_ID": 218324, "SE_ANNO_CAD_DATA": null, "CREATED": null, "EDITED": null, "GLOBALID": "{F3E8D00D-1646-4CE9-B870-ECD15D821E29}", "OBJECTID": 112 }, "geometry": { "type": "Point", "coordinates": [ -77.035661454702122, 38.902158662148345 ] } },
{ "type": "Feature", "properties": { "NAME": "THE ST. REGIS WASHINGTON, D.C.", "ADDRESS": "923 16TH STREET NW", "ZIPCODE": "20006", "PHONE": "202-638-2626", "NUMROOMS": 193, "WEB_URL": "http://www.starwoodhotels.com/stregis/property/overview/index.html?propertyID=193", "XCOORD": 396868.95, "YCOORD": 137139.51, "GIS_ID": "temp_79", "MAR_ID": 242334, "SE_ANNO_CAD_DATA": null, "CREATED": null, "EDITED": null, "GLOBALID": "{4F11E36F-6E9C-4B75-A57D-5FCAA636E0BB}", "OBJECTID": 113 }, "geometry": { "type": "Point", "coordinates": [ -77.036098708818443, 38.902112044726088 ] } },
{ "type": "Feature", "properties": { "NAME": "EMBASSY SUITES BY HILTON WASHINGTON DC CONVENTION CENTER", "ADDRESS": "900 10TH STREET NW", "ZIPCODE": "20001", "PHONE": "202-739-2001", "NUMROOMS": 382, "WEB_URL": "http://embassysuites3.hilton.com/en/hotels/district-of-columbia/embassy-suites-washington-dc-convention-center-WASCCES/index.html", "XCOORD": 397727.05, "YCOORD": 137129.18, "GIS_ID": "temp_38", "MAR_ID": 300519, "SE_ANNO_CAD_DATA": null, "CREATED": null, "EDITED": null, "GLOBALID": "{9AF64A27-9EE8-479A-A893-951460DD071A}", "OBJECTID": 114 }, "geometry": { "type": "Point", "coordinates": [ -77.026206037845895, 38.902021626480142 ] } },
{ "type": "Feature", "properties": { "NAME": "RENAISSANCE WASHINGTON DC DOWNTOWN", "ADDRESS": "999 9TH STREET NW", "ZIPCODE": "20001", "PHONE": "202-898-9000", "NUMROOMS": 807, "WEB_URL": "http://www.marriott.com/hotels/travel/wasrb-renaissance-washington-dc-downtown-hotel/", "XCOORD": 397945.24, "YCOORD": 137108.46, "GIS_ID": "temp_69", "MAR_ID": 218802, "SE_ANNO_CAD_DATA": null, "CREATED": null, "EDITED": null, "GLOBALID": "{750DCA5E-7CAD-4D4D-B3BD-9BCE8122BA76}", "OBJECTID": 115 }, "geometry": { "type": "Point", "coordinates": [ -77.023690567743969, 38.901835510533004 ] } },
{ "type": "Feature", "properties": { "NAME": "HAMPTON INN WASHINGTON DOWNTOWN CONVENTION CENTER", "ADDRESS": "901 6TH STREET NW", "ZIPCODE": "20001", "PHONE": "202-842-2500", "NUMROOMS": 228, "WEB_URL": "http://hamptoninn3.hilton.com/en/hotels/district-of-columbia/hampton-inn-washington-downtown-convention-center-WASHHHX/index.html", "XCOORD": 398295.53, "YCOORD": 137103.05, "GIS_ID": "temp_103", "MAR_ID": 300640, "SE_ANNO_CAD_DATA": null, "CREATED": null, "EDITED": null, "GLOBALID": "{23727267-E050-46B9-AFEC-B9CD39397559}", "OBJECTID": 116 }, "geometry": { "type": "Point", "coordinates": [ -77.019652239012672, 38.901787524500186 ] } },
{ "type": "Feature", "properties": { "NAME": "HOTEL LOMBARDY", "ADDRESS": "2019 PENNSYLVANIA AVENUE NW", "ZIPCODE": "20006", "PHONE": "202-828-2600", "NUMROOMS": 140, "WEB_URL": "http://www.hotellombardy.com/", "XCOORD": 396016.94, "YCOORD": 137076.17, "GIS_ID": "temp_116", "MAR_ID": 307825, "SE_ANNO_CAD_DATA": null, "CREATED": null, "EDITED": null, "GLOBALID": "{20BEC307-BB50-4A0E-AE57-D2B19244DCA3}", "OBJECTID": 117 }, "geometry": { "type": "Point", "coordinates": [ -77.045920768641437, 38.901538007303316 ] } },
{ "type": "Feature", "properties": { "NAME": "CAPITAL VIEW HOSTEL", "ADDRESS": "301 I STREET NW", "ZIPCODE": "20001", "PHONE": "202-450-3450", "NUMROOMS": null, "WEB_URL": "http://www.capitalhostels.com/", "XCOORD": 398661.38, "YCOORD": 137068.23, "GIS_ID": "temp_15", "MAR_ID": 289320, "SE_ANNO_CAD_DATA": null, "CREATED": null, "EDITED": null, "GLOBALID": "{EE0B2A55-3531-4CB7-8A31-4648F48FE8A6}", "OBJECTID": 118 }, "geometry": { "type": "Point", "coordinates": [ -77.015434475301618, 38.901474486919092 ] } },
{ "type": "Feature", "properties": { "NAME": "CONRAD WASHINGTON DC", "ADDRESS": "950 NEW YORK AVENUE NW", "ZIPCODE": "20001", "PHONE": "202-844-5900", "NUMROOMS": null, "WEB_URL": "http://conradhotels3.hilton.com/en/hotels/district-of-columbia/conrad-washington-dc-WASCICI/index.html", "XCOORD": 397796.44, "YCOORD": 137065.78, "GIS_ID": "temp_134", "MAR_ID": 309621, "SE_ANNO_CAD_DATA": null, "CREATED": null, "EDITED": null, "GLOBALID": "{C62301F2-27C7-4306-8896-31448A4E691F}", "OBJECTID": 119 }, "geometry": { "type": "Point", "coordinates": [ -77.025405870312525, 38.901450673356386 ] } },
{ "type": "Feature", "properties": { "NAME": "THE RIVER INN", "ADDRESS": "924 25TH STREET NW", "ZIPCODE": "20037", "PHONE": "202-337-7600", "NUMROOMS": 125, "WEB_URL": "http://www.theriverinn.com/", "XCOORD": 395340.92, "YCOORD": 137064.7, "GIS_ID": "temp_76", "MAR_ID": 273930, "SE_ANNO_CAD_DATA": null, "CREATED": null, "EDITED": null, "GLOBALID": "{5060D2B5-CD27-4A40-8E90-AE35B7052C5D}", "OBJECTID": 120 }, "geometry": { "type": "Point", "coordinates": [ -77.05371414802228, 38.901431358007649 ] } },
{ "type": "Feature", "properties": { "NAME": "CLUB QUARTERS HOTEL WASHINGTON, D.C.", "ADDRESS": "839 17TH STREET NW", "ZIPCODE": "20006", "PHONE": "202-463-6400", "NUMROOMS": 185, "WEB_URL": "https://clubquartershotels.com/locations/club-quarters-hotel-washington-dc", "XCOORD": 396596.19, "YCOORD": 137025.43, "GIS_ID": "temp_20", "MAR_ID": 218777, "SE_ANNO_CAD_DATA": null, "CREATED": null, "EDITED": null, "GLOBALID": "{913A0FD0-E542-4608-BD3C-A92967B93774}", "OBJECTID": 121 }, "geometry": { "type": "Point", "coordinates": [ -77.03924266675341, 38.901083357366694 ] } },
{ "type": "Feature", "properties": { "NAME": "HILTON GARDEN INN WASHINGTON DC DOWNTOWN", "ADDRESS": "815 14TH STREET NW", "ZIPCODE": "20005", "PHONE": "202-783-7800", "NUMROOMS": 300, "WEB_URL": "http://hiltongardeninn3.hilton.com/en/hotels/district-of-columbia/hilton-garden-inn-washington-dc-downtown-DCACHGI/index.html", "XCOORD": 397247.31, "YCOORD": 136979.78, "GIS_ID": "temp_107", "MAR_ID": 279961, "SE_ANNO_CAD_DATA": null, "CREATED": null, "EDITED": null, "GLOBALID": "{1431F8BD-A724-4BE5-B640-AC386223CB78}", "OBJECTID": 122 }, "geometry": { "type": "Point", "coordinates": [ -77.031736131793537, 38.900674406233186 ] } },
{ "type": "Feature", "properties": { "NAME": "THE HAY-ADAMS", "ADDRESS": "800 16TH STREET NW", "ZIPCODE": "20006", "PHONE": "202-638-6600", "NUMROOMS": 145, "WEB_URL": "http://www.hayadams.com/", "XCOORD": 396794.25, "YCOORD": 136964.26, "GIS_ID": "temp_104", "MAR_ID": 279937, "SE_ANNO_CAD_DATA": null, "CREATED": null, "EDITED": null, "GLOBALID": "{E69EBBA2-702F-478E-913C-E1BEFA41134E}", "OBJECTID": 123 }, "geometry": { "type": "Point", "coordinates": [ -77.036959072409218, 38.90053306080123 ] } },
{ "type": "Feature", "properties": { "NAME": "SOFITEL WASHINGTON DC LAFAYETTE SQUARE", "ADDRESS": "806 15TH STREET NW", "ZIPCODE": "20005", "PHONE": "202-730-8800", "NUMROOMS": 237, "WEB_URL": "http://www.sofitel.com/gb/hotel-3293-sofitel-washington-dc-lafayette-square/index.shtml", "XCOORD": 397051.78, "YCOORD": 136961.98, "GIS_ID": "temp_121", "MAR_ID": 279949, "SE_ANNO_CAD_DATA": null, "CREATED": null, "EDITED": null, "GLOBALID": "{892EBBD2-724D-4DBA-B18F-DDA66A15B4E8}", "OBJECTID": 124 }, "geometry": { "type": "Point", "coordinates": [ -77.033990184539874, 38.900513423315537 ] } },
{ "type": "Feature", "properties": { "NAME": "HAMPTON INN WASHINGTON DC/WHITE HOUSE", "ADDRESS": "1729 H STREET NW", "ZIPCODE": "20006", "PHONE": "202-296-1006", "NUMROOMS": 116, "WEB_URL": "http://hamptoninn3.hilton.com/en/hotels/district-of-columbia/hampton-inn-washington-dc-white-house-WASHSHX/index.html", "XCOORD": 396434.21, "YCOORD": 136958.98, "GIS_ID": "temp_102", "MAR_ID": 279355, "SE_ANNO_CAD_DATA": null, "CREATED": null, "EDITED": null, "GLOBALID": "{99273D82-C886-4372-9068-CCB718F02A87}", "OBJECTID": 125 }, "geometry": { "type": "Point", "coordinates": [ -77.041109686982239, 38.900484109750131 ] } },
{ "type": "Feature", "properties": { "NAME": "CITY HOUSE HOSTEL WASHINGTON DC", "ADDRESS": "506 H STREET NE", "ZIPCODE": "20002", "PHONE": "202-370-6390", "NUMROOMS": null, "WEB_URL": "http://www.cityhousehostels.com/washington-dc/", "XCOORD": 400078.39, "YCOORD": 136952.92, "GIS_ID": "temp_164", "MAR_ID": 13950, "SE_ANNO_CAD_DATA": null, "CREATED": null, "EDITED": null, "GLOBALID": "{EC7EF159-D0A2-4B00-A99B-D8F375FD8A74}", "OBJECTID": 126 }, "geometry": { "type": "Point", "coordinates": [ -76.999098582811641, 38.900436749443834 ] } },
{ "type": "Feature", "properties": { "NAME": "ARC THE.HOTEL", "ADDRESS": "824 NEW HAMPSHIRE AVENUE NW", "ZIPCODE": "20037", "PHONE": "202-843-1564", "NUMROOMS": 95, "WEB_URL": "https://arcthehoteldc.com", "XCOORD": 395430.48, "YCOORD": 136931.62, "GIS_ID": "temp_44", "MAR_ID": 274009, "SE_ANNO_CAD_DATA": null, "CREATED": null, "EDITED": null, "GLOBALID": "{9174132E-3A66-4AD1-B970-CB5966E484C6}", "OBJECTID": 127 }, "geometry": { "type": "Point", "coordinates": [ -77.052680776925115, 38.900232995968544 ] } },
{ "type": "Feature", "properties": { "NAME": "POD HOTEL DC", "ADDRESS": "627 H STREET NW", "ZIPCODE": "20001", "PHONE": "202-847-4444", "NUMROOMS": null, "WEB_URL": "https://www.thepodhotel.com/pod-dc/", "XCOORD": 398161.01, "YCOORD": 136907.11, "GIS_ID": "temp_147", "MAR_ID": 238700, "SE_ANNO_CAD_DATA": null, "CREATED": null, "EDITED": null, "GLOBALID": "{A0CC6825-3082-4624-ADFB-9180A1C9D0EC}", "OBJECTID": 128 }, "geometry": { "type": "Point", "coordinates": [ -77.021202525948098, 38.900022155525271 ] } },
{ "type": "Feature", "properties": { "NAME": "AKA WHITE HOUSE", "ADDRESS": "1710 H STREET NW", "ZIPCODE": "20006", "PHONE": "202-904-2500", "NUMROOMS": 142, "WEB_URL": "http://www.stayaka.com/locations/white_house/default.aspx", "XCOORD": 396504.91, "YCOORD": 136901.48, "GIS_ID": "temp_3", "MAR_ID": 218432, "SE_ANNO_CAD_DATA": null, "CREATED": null, "EDITED": null, "GLOBALID": "{007122C9-758F-45F1-84FB-B8BCDC5FD4A4}", "OBJECTID": 129 }, "geometry": { "type": "Point", "coordinates": [ -77.040294345526547, 38.899966413085188 ] } },
{ "type": "Feature", "properties": { "NAME": "RESIDENCE INN WASHINGTON, DC/FOGGY BOTTOM", "ADDRESS": "801 NEW HAMPSHIRE AVENUE NW", "ZIPCODE": "20037", "PHONE": "202-785-2000", "NUMROOMS": 103, "WEB_URL": "https://www.marriott.com/hotels/travel/wasfg-residence-inn-washington-dc-foggy-bottom/", "XCOORD": 395467.93, "YCOORD": 136889.66, "GIS_ID": "temp_72", "MAR_ID": 277506, "SE_ANNO_CAD_DATA": null, "CREATED": null, "EDITED": null, "GLOBALID": "{74A9AE05-0F02-45AB-A3FB-A43B67CFA405}", "OBJECTID": 130 }, "geometry": { "type": "Point", "coordinates": [ -77.052248767806972, 38.89985519913094 ] } },
{ "type": "Feature", "properties": { "NAME": "THE WOODWARD BY BRIDGESTREET", "ADDRESS": "733 15TH STREET NW", "ZIPCODE": "20005", "PHONE": "1-800-278-7338", "NUMROOMS": null, "WEB_URL": "https://www.bridgestreet.com/properties/washington/the-woodward", "XCOORD": 397105.09, "YCOORD": 136887.3, "GIS_ID": "temp_10", "MAR_ID": 279921, "SE_ANNO_CAD_DATA": null, "CREATED": null, "EDITED": null, "GLOBALID": "{D1AA9453-C94C-46F8-AFE8-9FD694CEF8E1}", "OBJECTID": 131 }, "geometry": { "type": "Point", "coordinates": [ -77.033375297294938, 38.899840856239571 ] } },
{ "type": "Feature", "properties": { "NAME": "FAIRFIELD INN & SUITES WASHINGTON, DC/DOWNTOWN", "ADDRESS": "500 H STREET NW", "ZIPCODE": "20001", "PHONE": "202-289-5959", "NUMROOMS": 189, "WEB_URL": "http://www.marriott.com/hotels/travel/wasfc-fairfield-inn-and-suites-washington-dc-downtown/", "XCOORD": 398330.11, "YCOORD": 136867.3, "GIS_ID": "temp_40", "MAR_ID": 242981, "SE_ANNO_CAD_DATA": null, "CREATED": null, "EDITED": null, "GLOBALID": "{897D2F08-E88C-4614-8802-E82C5B02E74E}", "OBJECTID": 132 }, "geometry": { "type": "Point", "coordinates": [ -77.019253010781071, 38.899663870272086 ] } },
{ "type": "Feature", "properties": { "NAME": "MARRIOTT AT METRO CENTER", "ADDRESS": "775 12TH STREET NW", "ZIPCODE": "20005", "PHONE": "202-737-2200", "NUMROOMS": 459, "WEB_URL": "http://www.marriott.com/hotels/travel/wasmc-washington-marriott-at-metro-center/", "XCOORD": 397589.74, "YCOORD": 136834.68, "GIS_ID": "temp_59", "MAR_ID": 239130, "SE_ANNO_CAD_DATA": null, "CREATED": null, "EDITED": null, "GLOBALID": "{91DE3C1B-4603-4EAA-965A-A8B712BCECA5}", "OBJECTID": 133 }, "geometry": { "type": "Point", "coordinates": [ -77.027787985561346, 38.89936829898938 ] } },
{ "type": "Feature", "properties": { "NAME": "THE WATERGATE HOTEL", "ADDRESS": "2650 VIRGINIA AVENUE NW", "ZIPCODE": "20037", "PHONE": "202-827-1600", "NUMROOMS": 336, "WEB_URL": "https://www.thewatergatehotel.com", "XCOORD": 395157.97, "YCOORD": 136832.94, "GIS_ID": "temp_137", "MAR_ID": 279606, "SE_ANNO_CAD_DATA": null, "CREATED": null, "EDITED": null, "GLOBALID": "{FFF54DFB-3D50-4E2B-8F1D-DC4BF2C59851}", "OBJECTID": 134 }, "geometry": { "type": "Point", "coordinates": [ -77.055821639409046, 38.89934259215601 ] } },
{ "type": "Feature", "properties": { "NAME": "GRAND HYATT WASHINGTON", "ADDRESS": "1000 H STREET NW", "ZIPCODE": "20001", "PHONE": "202-582-1234", "NUMROOMS": 897, "WEB_URL": "https://washingtondc.grand.hyatt.com/en/hotel/home.html", "XCOORD": 397702.33, "YCOORD": 136832.4, "GIS_ID": "temp_50", "MAR_ID": 239368, "SE_ANNO_CAD_DATA": null, "CREATED": null, "EDITED": null, "GLOBALID": "{5A9AA1A6-D877-412F-8F50-3A7AA4ACB420}", "OBJECTID": 135 }, "geometry": { "type": "Point", "coordinates": [ -77.026490029988167, 38.899348061474505 ] } },
{ "type": "Feature", "properties": { "NAME": "HOTEL HIVE", "ADDRESS": "2224 F STREET NW", "ZIPCODE": "20037", "PHONE": "202-849-8499", "NUMROOMS": 50, "WEB_URL": "http://www.hotelhive.com", "XCOORD": 395691.86, "YCOORD": 136591.26, "GIS_ID": "temp_4", "MAR_ID": 242724, "SE_ANNO_CAD_DATA": null, "CREATED": null, "EDITED": null, "GLOBALID": "{43ACECEA-2BED-4468-82D3-A8821EE8D08A}", "OBJECTID": 136 }, "geometry": { "type": "Point", "coordinates": [ -77.049665393076026, 38.897168230189635 ] } },
{ "type": "Feature", "properties": { "NAME": "PHOENIX PARK HOTEL", "ADDRESS": "520 NORTH CAPITOL STREET NW", "ZIPCODE": "20001", "PHONE": "202-638-6900", "NUMROOMS": 149, "WEB_URL": "http://www.phoenixparkhotel.com/", "XCOORD": 399177.8, "YCOORD": 136581.71, "GIS_ID": "temp_67", "MAR_ID": 237156, "SE_ANNO_CAD_DATA": null, "CREATED": null, "EDITED": null, "GLOBALID": "{7B10485A-63AC-406A-A34B-3E8DDCB3B8D7}", "OBJECTID": 137 }, "geometry": { "type": "Point", "coordinates": [ -77.009480379114692, 38.897092373887602 ] } },
{ "type": "Feature", "properties": { "NAME": "COURTYARD WASHINGTON CONVENTION CENTER", "ADDRESS": "900 F STREET NW", "ZIPCODE": "20004", "PHONE": "202-638-4600", "NUMROOMS": 188, "WEB_URL": "http://www.marriott.com/hotels/travel/wascn-courtyard-washington-convention-center/", "XCOORD": 397889.76, "YCOORD": 136579.88, "GIS_ID": "temp_23", "MAR_ID": 243269, "SE_ANNO_CAD_DATA": null, "CREATED": null, "EDITED": null, "GLOBALID": "{A486E911-A8DF-414D-8143-6482393FEF1E}", "OBJECTID": 138 }, "geometry": { "type": "Point", "coordinates": [ -77.024328544319317, 38.897073739692459 ] } },
{ "type": "Feature", "properties": { "NAME": "KIMPTON HOTEL MONACO", "ADDRESS": "700 F STREET NW", "ZIPCODE": "20004", "PHONE": "202-628-7177", "NUMROOMS": 183, "WEB_URL": "http://www.monaco-dc.com/", "XCOORD": 398051.36, "YCOORD": 136571.24, "GIS_ID": "temp_118", "MAR_ID": 301590, "SE_ANNO_CAD_DATA": null, "CREATED": null, "EDITED": null, "GLOBALID": "{535553A0-7BC0-4237-8E1A-A7769578F183}", "OBJECTID": 139 }, "geometry": { "type": "Point", "coordinates": [ -77.022465639941331, 38.896996280560543 ] } },
{ "type": "Feature", "properties": { "NAME": "W WASHINGTON D.C.", "ADDRESS": "515 15TH STREET NW", "ZIPCODE": "20004", "PHONE": "202-661-2400", "NUMROOMS": 317, "WEB_URL": "http://www.wwashingtondc.com/", "XCOORD": 397103.43, "YCOORD": 136567.81, "GIS_ID": "temp_100", "MAR_ID": 279820, "SE_ANNO_CAD_DATA": null, "CREATED": null, "EDITED": null, "GLOBALID": "{C10699F3-DED2-487E-AE1F-F30D1BFB65F3}", "OBJECTID": 140 }, "geometry": { "type": "Point", "coordinates": [ -77.033393086690992, 38.896962769110786 ] } },
{ "type": "Feature", "properties": { "NAME": "WASHINGTON COURT HOTEL", "ADDRESS": "525 NEW JERSEY AVENUE NW", "ZIPCODE": "20001", "PHONE": "202-628-2100", "NUMROOMS": 265, "WEB_URL": "http://washingtoncourthotel.com/", "XCOORD": 399037.23, "YCOORD": 136551.16, "GIS_ID": "temp_101", "MAR_ID": 279827, "SE_ANNO_CAD_DATA": null, "CREATED": null, "EDITED": null, "GLOBALID": "{E46938C1-46C2-468C-80A9-EB883EAA585B}", "OBJECTID": 141 }, "geometry": { "type": "Point", "coordinates": [ -77.011100788615039, 38.89681702555847 ] } },
{ "type": "Feature", "properties": { "NAME": "COURTYARD WASHINGTON, DC/FOGGY BOTTOM", "ADDRESS": "515 20TH STREET NW", "ZIPCODE": "20006", "PHONE": "202-296-5700", "NUMROOMS": 149, "WEB_URL": "http://www.marriott.com/hotels/travel/wasfb-courtyard-washington-dc-foggy-bottom/", "XCOORD": 396123.41, "YCOORD": 136519.29, "GIS_ID": "temp_26", "MAR_ID": 279821, "SE_ANNO_CAD_DATA": null, "CREATED": null, "EDITED": null, "GLOBALID": "{76B5E305-2020-4D0F-AC12-362B3B559E4D}", "OBJECTID": 142 }, "geometry": { "type": "Point", "coordinates": [ -77.044690192355304, 38.896521907394614 ] } },
{ "type": "Feature", "properties": { "NAME": "WILLARD INTERCONTINENTAL WASHINGTON D.C.", "ADDRESS": "1401 PENNSYLVANIA AVENUE NW", "ZIPCODE": "20004", "PHONE": "202-628-9100", "NUMROOMS": 340, "WEB_URL": "http://washington.intercontinental.com/", "XCOORD": 397194.15, "YCOORD": 136516.41, "GIS_ID": "temp_98", "MAR_ID": 279129, "SE_ANNO_CAD_DATA": null, "CREATED": null, "EDITED": null, "GLOBALID": "{235943B9-B41E-4A84-9969-860F8870E0A8}", "OBJECTID": 143 }, "geometry": { "type": "Point", "coordinates": [ -77.032347083450105, 38.896500033431643 ] } },
{ "type": "Feature", "properties": { "NAME": "KIMPTON GEORGE HOTEL", "ADDRESS": "15 E STREET NW", "ZIPCODE": "20001", "PHONE": "202-347-4200", "NUMROOMS": 139, "WEB_URL": "http://www.hotelgeorge.com/", "XCOORD": 399140.54, "YCOORD": 136505.23, "GIS_ID": "temp_113", "MAR_ID": 237159, "SE_ANNO_CAD_DATA": null, "CREATED": null, "EDITED": null, "GLOBALID": "{4BF1DE63-0DB5-4897-AAF4-A9B4E92FFC71}", "OBJECTID": 144 }, "geometry": { "type": "Point", "coordinates": [ -77.009909806430358, 38.896403378441391 ] } },
{ "type": "Feature", "properties": { "NAME": "STATE PLAZA HOTEL", "ADDRESS": "2117 E STREET NW", "ZIPCODE": "20037", "PHONE": "202-861-8200", "NUMROOMS": 460, "WEB_URL": "http://www.stateplaza.com/", "XCOORD": 395879.38, "YCOORD": 136504.72, "GIS_ID": "temp_80", "MAR_ID": 242537, "SE_ANNO_CAD_DATA": null, "CREATED": null, "EDITED": null, "GLOBALID": "{D8298C3F-8B76-4CB2-B187-404198BF6073}", "OBJECTID": 145 }, "geometry": { "type": "Point", "coordinates": [ -77.0475031928802, 38.896389545418224 ] } },
{ "type": "Feature", "properties": { "NAME": "JW MARRIOTT", "ADDRESS": "1331 PENNSYLVANIA AVENUE NW", "ZIPCODE": "20004", "PHONE": "202-393-2000", "NUMROOMS": 772, "WEB_URL": "http://www.marriott.com/hotels/travel/wasjw-jw-marriott-washington-dc/", "XCOORD": 397278.55, "YCOORD": 136502.52, "GIS_ID": "temp_55", "MAR_ID": 279081, "SE_ANNO_CAD_DATA": null, "CREATED": null, "EDITED": null, "GLOBALID": "{39C87AC2-9D11-4B61-9224-71A3A2AE0CB8}", "OBJECTID": 146 }, "geometry": { "type": "Point", "coordinates": [ -77.031374096537888, 38.896375172606753 ] } },
{ "type": "Feature", "properties": { "NAME": "HOTEL HARRINGTON", "ADDRESS": "436 11TH STREET NW", "ZIPCODE": "20004", "PHONE": "202-628-8140", "NUMROOMS": 242, "WEB_URL": "http://www.hotel-harrington.com/", "XCOORD": 397631.61, "YCOORD": 136457.62, "GIS_ID": "temp_114", "MAR_ID": 300863, "SE_ANNO_CAD_DATA": null, "CREATED": null, "EDITED": null, "GLOBALID": "{AA50FC15-ECF7-4FE5-8481-533FCE78AE9A}", "OBJECTID": 147 }, "geometry": { "type": "Point", "coordinates": [ -77.02730400412301, 38.895971719219318 ] } },
{ "type": "Feature", "properties": { "NAME": "STAY ALFRED ON 8TH STREET", "ADDRESS": "425 8TH STREET NW", "ZIPCODE": "20004", "PHONE": "855-923-8300", "NUMROOMS": null, "WEB_URL": "https://www.stayalfred.com/property/stay-alfred-on-8th-street", "XCOORD": 398029.03, "YCOORD": 136443.64, "GIS_ID": "temp_136", "MAR_ID": 226572, "SE_ANNO_CAD_DATA": null, "CREATED": null, "EDITED": null, "GLOBALID": "{200025B5-AA19-4375-A1F3-B721315318DB}", "OBJECTID": 148 }, "geometry": { "type": "Point", "coordinates": [ -77.022722687527462, 38.895846763296568 ] } },
{ "type": "Feature", "properties": { "NAME": "THE LIASON CAPITOL HILL", "ADDRESS": "415 NEW JERSEY AVENUE NW", "ZIPCODE": "20001", "PHONE": "202-638-1616", "NUMROOMS": 343, "WEB_URL": "https://www.jdvhotels.com/hotels/washington-dc/washington/liaison-capitol-hill", "XCOORD": 399073.19, "YCOORD": 136393.57, "GIS_ID": "temp_92", "MAR_ID": 237162, "SE_ANNO_CAD_DATA": null, "CREATED": null, "EDITED": null, "GLOBALID": "{A652E5CA-8CCB-448F-BA08-A01EED5CFB07}", "OBJECTID": 149 }, "geometry": { "type": "Point", "coordinates": [ -77.010686040522216, 38.895397435746624 ] } },
{ "type": "Feature", "properties": { "NAME": "HYATT REGENCY WASHINGTON ON CAPITOL HILL", "ADDRESS": "400 NEW JERSEY AVENUE NW", "ZIPCODE": "20001", "PHONE": "202-737-1234", "NUMROOMS": 836, "WEB_URL": "http://washingtonregency.hyatt.com/en/hotel/home.html", "XCOORD": 398984.74, "YCOORD": 136391.14, "GIS_ID": "temp_123", "MAR_ID": 279731, "SE_ANNO_CAD_DATA": null, "CREATED": null, "EDITED": null, "GLOBALID": "{F9E62F62-FBC5-455C-ADCE-5B0CA410E7A4}", "OBJECTID": 150 }, "geometry": { "type": "Point", "coordinates": [ -77.011705639998539, 38.895375447674965 ] } },
{ "type": "Feature", "properties": { "NAME": "TRUMP INTERNATIONAL HOTEL WASHINGTON, D.C.", "ADDRESS": "1100 PENNSYLVANIA AVENUE NW", "ZIPCODE": "20004", "PHONE": "202-695-1100", "NUMROOMS": 263, "WEB_URL": "https://www.trumphotels.com/washington-dc", "XCOORD": 397609.02, "YCOORD": 136250.59, "GIS_ID": "temp_138", "MAR_ID": 293192, "SE_ANNO_CAD_DATA": null, "CREATED": null, "EDITED": null, "GLOBALID": "{5AC7CD34-A65C-45C7-B904-6E141F241BDD}", "OBJECTID": 151 }, "geometry": { "type": "Point", "coordinates": [ -77.027563690685568, 38.894106655662434 ] } },
{ "type": "Feature", "properties": { "NAME": "FOUND PLACES CAPITOL HILL BED AND BREAKFAST", "ADDRESS": "101 5TH STREET NE", "ZIPCODE": "20002", "PHONE": "202-798-1262", "NUMROOMS": 11, "WEB_URL": "https://www.capitolhillbnb.com/en-us", "XCOORD": 400064.16, "YCOORD": 135914.89, "GIS_ID": "temp_166", "MAR_ID": 75958, "SE_ANNO_CAD_DATA": null, "CREATED": null, "EDITED": null, "GLOBALID": "{3CC8F707-86D2-48DB-B547-09B98D7EB8FD}", "OBJECTID": 152 }, "geometry": { "type": "Point", "coordinates": [ -76.999262726408702, 38.891085795294003 ] } },
{ "type": "Feature", "properties": { "NAME": "A CAPITOL PLACE", "ADDRESS": "134 12TH STREET SE", "ZIPCODE": "20003", "PHONE": "202-543-1020", "NUMROOMS": 5, "WEB_URL": null, "XCOORD": 400869.56, "YCOORD": 135613.84, "GIS_ID": "temp_1", "MAR_ID": 66757, "SE_ANNO_CAD_DATA": null, "CREATED": null, "EDITED": null, "GLOBALID": "{B1595633-C875-4D9B-B7A7-DF1602D0383A}", "OBJECTID": 153 }, "geometry": { "type": "Point", "coordinates": [ -76.989979459002157, 38.88837339614868 ] } },
{ "type": "Feature", "properties": { "NAME": "INDEPENDENCE HOUSE B & B", "ADDRESS": "504 INDEPENDENCE AVENUE SE", "ZIPCODE": "20003", "PHONE": "202-328-3510 ", "NUMROOMS": null, "WEB_URL": "https://www.bedandbreakfastdc.com/accommodations/independence-house-b-b", "XCOORD": 400070.75, "YCOORD": 135549.76, "GIS_ID": "temp_124", "MAR_ID": 14495, "SE_ANNO_CAD_DATA": null, "CREATED": null, "EDITED": null, "GLOBALID": "{E64D2FC7-4E62-45E5-824F-7EA97B073765}", "OBJECTID": 154 }, "geometry": { "type": "Point", "coordinates": [ -76.999186802491153, 38.887796566033622 ] } },
{ "type": "Feature", "properties": { "NAME": "CAPITOL HILL HOTEL", "ADDRESS": "200 C STREET SE", "ZIPCODE": "20003", "PHONE": "202-543-6000", "NUMROOMS": 152, "WEB_URL": "http://capitolhillhotel-dc.com/", "XCOORD": 399733.27, "YCOORD": 135376.88, "GIS_ID": "temp_16", "MAR_ID": 278017, "SE_ANNO_CAD_DATA": null, "CREATED": null, "EDITED": null, "GLOBALID": "{B430950F-6524-4A91-B35F-B4B732600CAC}", "OBJECTID": 155 }, "geometry": { "type": "Point", "coordinates": [ -77.00307660514332, 38.8862391593673 ] } },
{ "type": "Feature", "properties": { "NAME": null, "ADDRESS": "5213 B STREET SE", "ZIPCODE": "20019", "PHONE": "202-670-6332", "NUMROOMS": 4, "WEB_URL": "http://www.malolobandb.com/", "XCOORD": 406368.73, "YCOORD": 135351.86, "GIS_ID": "temp_168", "MAR_ID": 11549, "SE_ANNO_CAD_DATA": null, "CREATED": null, "EDITED": null, "GLOBALID": "{E3631AB3-381B-47B5-BEC6-7AE5F0F277A0}", "OBJECTID": 156 }, "geometry": { "type": "Point", "coordinates": [ -76.926596728282547, 38.885990746407025 ] } },
{ "type": "Feature", "properties": { "NAME": "HOLIDAY INN CAPITOL", "ADDRESS": "550 C STREET SW", "ZIPCODE": "20024", "PHONE": "202-479-4000", "NUMROOMS": 532, "WEB_URL": "http://www.hicapitoldc.com/", "XCOORD": 398297.18, "YCOORD": 135310.64, "GIS_ID": "temp_109", "MAR_ID": 276671, "SE_ANNO_CAD_DATA": null, "CREATED": null, "EDITED": null, "GLOBALID": "{A3BE1E4E-2EC2-40E0-90E7-1EE88814338D}", "OBJECTID": 157 }, "geometry": { "type": "Point", "coordinates": [ -77.019628773441283, 38.885640834972584 ] } },
{ "type": "Feature", "properties": { "NAME": "HILTON WASHINGTON DC NATIONAL MALL", "ADDRESS": "480 L'ENFANT PLAZA SW", "ZIPCODE": "20024", "PHONE": "202-871-8345", "NUMROOMS": 372, "WEB_URL": "http://hiltondcnationalmall.com/", "XCOORD": 397885.97, "YCOORD": 135118.5, "GIS_ID": "temp_14", "MAR_ID": 302307, "SE_ANNO_CAD_DATA": null, "CREATED": null, "EDITED": null, "GLOBALID": "{F13CDFAF-5080-4278-9AA0-497669A28DD2}", "OBJECTID": 158 }, "geometry": { "type": "Point", "coordinates": [ -77.024367737181407, 38.883909071280129 ] } },
{ "type": "Feature", "properties": { "NAME": "RESIDENCE INN WASHINGTON, DC/CAPITOL", "ADDRESS": "333 E STREET SW", "ZIPCODE": "20024", "PHONE": "202-484-8280", "NUMROOMS": 233, "WEB_URL": "http://www.marriott.com/hotels/travel/wascp-residence-inn-washington-dc-capitol/", "XCOORD": 398617.82, "YCOORD": 135086.41, "GIS_ID": "temp_73", "MAR_ID": 277584, "SE_ANNO_CAD_DATA": null, "CREATED": null, "EDITED": null, "GLOBALID": "{5DD7573C-0631-4826-BD0A-9DB3362550BB}", "OBJECTID": 159 }, "geometry": { "type": "Point", "coordinates": [ -77.015932665781932, 38.88362144755768 ] } },
{ "type": "Feature", "properties": { "NAME": "MANDARIN ORIENTAL", "ADDRESS": "1330 MARYLAND AVENUE SW", "ZIPCODE": "20024", "PHONE": "202-554-8588", "NUMROOMS": 400, "WEB_URL": "https://www.mandarinoriental.com/washington/national-mall/luxury-hotel", "XCOORD": 397358.14, "YCOORD": 135085.41, "GIS_ID": "temp_58", "MAR_ID": 297583, "SE_ANNO_CAD_DATA": null, "CREATED": null, "EDITED": null, "GLOBALID": "{BAC41F2E-B095-4965-ADA8-C68375ACC480}", "OBJECTID": 160 }, "geometry": { "type": "Point", "coordinates": [ -77.030451164614036, 38.883609556027061 ] } },
{ "type": "Feature", "properties": { "NAME": "DUO NOMAD", "ADDRESS": "1010 PENNSYLVANIA AVENUE SE", "ZIPCODE": "20003", "PHONE": "202-629-3495", "NUMROOMS": null, "WEB_URL": "https://www.duonomad.com", "XCOORD": 400684.39, "YCOORD": 135058.69, "GIS_ID": "temp_158", "MAR_ID": 75803, "SE_ANNO_CAD_DATA": null, "CREATED": null, "EDITED": null, "GLOBALID": "{03F8F5EC-78CD-4D87-BC7F-165F3223C341}", "OBJECTID": 161 }, "geometry": { "type": "Point", "coordinates": [ -76.992114339624649, 38.883372556014955 ] } },
{ "type": "Feature", "properties": { "NAME": "HYATT PLACE WASHINGTON DC/NATIONAL MALL", "ADDRESS": "400 E STREET SW", "ZIPCODE": "20024", "PHONE": "202-803-6110", "NUMROOMS": 214, "WEB_URL": "https://dcnationalmall.place.hyatt.com/en/hotel/home.html", "XCOORD": 398441.4, "YCOORD": 135024.88, "GIS_ID": "temp_141", "MAR_ID": 311526, "SE_ANNO_CAD_DATA": null, "CREATED": null, "EDITED": null, "GLOBALID": "{A0B25068-D7B7-49E3-94E5-73576E2AB226}", "OBJECTID": 162 }, "geometry": { "type": "Point", "coordinates": [ -77.017965863495292, 38.883066866419277 ] } },
{ "type": "Feature", "properties": { "NAME": "INTERCONTINENTAL WASHINGTON D.C. - THE WHARF", "ADDRESS": "801 WHARF STREET SW", "ZIPCODE": "20024", "PHONE": "202-800-0844", "NUMROOMS": null, "WEB_URL": "https://wharfintercontinentaldc.com", "XCOORD": 397826.68, "YCOORD": 134620.13, "GIS_ID": "temp_135", "MAR_ID": 312937, "SE_ANNO_CAD_DATA": null, "CREATED": null, "EDITED": null, "GLOBALID": "{26428779-1DC4-4BBB-B7DA-C8BE874D35C6}", "OBJECTID": 163 }, "geometry": { "type": "Point", "coordinates": [ -77.025049513420811, 38.879419415836821 ] } },
{ "type": "Feature", "properties": { "NAME": "CAPITOL SKYLINE HOTEL", "ADDRESS": "10 I STREET SW", "ZIPCODE": "20024", "PHONE": "202-488-7500", "NUMROOMS": 203, "WEB_URL": "http://www.capitolskyline.com/", "XCOORD": 399155.72, "YCOORD": 134576.96, "GIS_ID": "temp_17", "MAR_ID": 276385, "SE_ANNO_CAD_DATA": null, "CREATED": null, "EDITED": null, "GLOBALID": "{4E6D0E1C-D0C2-4B71-897D-81375DFD6F9C}", "OBJECTID": 164 }, "geometry": { "type": "Point", "coordinates": [ -77.009732446939978, 38.879032804610347 ] } },
{ "type": "Feature", "properties": { "NAME": "CANOPY WASHINGTON DC THE WHARF", "ADDRESS": "975 7TH STREET SW", "ZIPCODE": "20024", "PHONE": "202-488-2500", "NUMROOMS": null, "WEB_URL": "http://canopy3.hilton.com/en/hotels/district-of-columbia/canopy-by-hilton-washington-dc-the-wharf-DCACUPY/index.html", "XCOORD": 397966.81, "YCOORD": 134522.21, "GIS_ID": "temp_153", "MAR_ID": 313288, "SE_ANNO_CAD_DATA": null, "CREATED": null, "EDITED": null, "GLOBALID": "{7A4EADB0-F96B-40C7-BC85-D78A001696BE}", "OBJECTID": 165 }, "geometry": { "type": "Point", "coordinates": [ -77.023434243696514, 38.878537649213904 ] } },
{ "type": "Feature", "properties": { "NAME": "COURTYARD WASHINGTON CAPITOL HILL/NAVY YARD", "ADDRESS": "140 L STREET SE", "ZIPCODE": "20003", "PHONE": "202-479-0027", "NUMROOMS": 204, "WEB_URL": "http://www.marriott.com/hotels/travel/wasny-courtyard-washington-capitol-hill-navy-yard/", "XCOORD": 399656.31, "YCOORD": 134430.27, "GIS_ID": "temp_28", "MAR_ID": 299775, "SE_ANNO_CAD_DATA": null, "CREATED": null, "EDITED": null, "GLOBALID": "{C1C583AB-AE56-4E45-AD74-4ECF9561456B}", "OBJECTID": 166 }, "geometry": { "type": "Point", "coordinates": [ -77.003963170012099, 38.877711701590826 ] } },
{ "type": "Feature", "properties": { "NAME": "HOMEWOOD SUITES WASHINGTON DC CAPITOL - NAVY YARD", "ADDRESS": "50 M STREET SE", "ZIPCODE": "20003", "PHONE": "202-899-2800", "NUMROOMS": 195, "WEB_URL": "http://homewoodsuites3.hilton.com/en/hotels/district-of-columbia/homewood-suites-by-hilton-washington-dc-capitol-navy-yard-WASCAHW/index.html", "XCOORD": 399369.48, "YCOORD": 134315.82, "GIS_ID": "temp_140", "MAR_ID": 278548, "SE_ANNO_CAD_DATA": null, "CREATED": null, "EDITED": null, "GLOBALID": "{AB618B8C-A158-456F-B01C-35E32AC26F51}", "OBJECTID": 167 }, "geometry": { "type": "Point", "coordinates": [ -77.00726866434853, 38.876680531613566 ] } },
{ "type": "Feature", "properties": { "NAME": "RESIDENCE INN WASHINGTON CAPITOL HILL/NAVY YARD", "ADDRESS": "1233 1ST STREET SE", "ZIPCODE": "20003", "PHONE": "202-770-2800", "NUMROOMS": null, "WEB_URL": "https://www.marriott.com/hotels/travel/wasxr-residence-inn-washington-capitol-hill-navy-yard/", "XCOORD": 399461.77, "YCOORD": 134232.5, "GIS_ID": "temp_142", "MAR_ID": 70461, "SE_ANNO_CAD_DATA": null, "CREATED": null, "EDITED": null, "GLOBALID": "{BE18B222-2D3D-45A5-9008-0AE2F4B7B258}", "OBJECTID": 168 }, "geometry": { "type": "Point", "coordinates": [ -77.006205009618967, 38.875930013287608 ] } },
{ "type": "Feature", "properties": { "NAME": "HAMPTON INN & SUITES WASHINGTON DC-NAVY YARD", "ADDRESS": "1265 1ST STREET SE", "ZIPCODE": "20003", "PHONE": "202-800-1000", "NUMROOMS": null, "WEB_URL": "http://hamptoninn3.hilton.com/en/hotels/district-of-columbia/hampton-inn-and-suites-washington-dc-navy-yard-WASNYHX/index.html", "XCOORD": 399463.0, "YCOORD": 134128.67, "GIS_ID": "temp_155", "MAR_ID": 304845, "SE_ANNO_CAD_DATA": null, "CREATED": null, "EDITED": null, "GLOBALID": "{37F6643C-0B53-4BFC-BCE7-E97204666DEC}", "OBJECTID": 169 }, "geometry": { "type": "Point", "coordinates": [ -77.00619075354922, 38.874994671968345 ] } }
]
}
